
[12:10:18.012]收←◆$GPGGA,041017,3958.92737,N,11620.23737,E,1,31,,41.725,M,,M,,*4F

[12:10:18.984]收←◆$GPGGA,041018,3958.92737,N,11620.23737,E,1,32,,41.725,M,,M,,*43

[12:10:19.972]收←◆$GPGGA,041019,3958.92737,N,11620.23737,E,1,32,,41.725,M,,M,,*42

[12:10:20.995]收←◆$GPGGA,041020,3958.92737,N,11620.23737,E,1,32,,41.725,M,,M,,*48

[12:10:21.966]收←◆$GPGGA,041021,3958.92737,N,11620.23737,E,1,32,,41.725,M,,M,,*49

[12:10:22.982]收←◆$GPGGA,041022,3958.92737,N,11620.23737,E,1,32,,41.725,M,,M,,*4A

[12:10:23.996]收←◆$GPGGA,041023,3958.92737,N,11620.23737,E,1,32,,41.725,M,,M,,*4B

[12:10:25.016]收←◆$GPGGA,041024,3958.92718,N,11620.23721,E,1,31,,41.928,M,,M,,*46

[12:10:26.011]收←◆$GPGGA,041025,3958.92544,N,11620.23619,E,1,31,,45.129,M,,M,,*4B

[12:10:27.009]收←◆$GPGGA,041026,3958.92522,N,11620.23597,E,1,30,,45.742,M,,M,,*47

[12:10:27.999]收←◆$GPGGA,041026,3958.92522,N,11620.23597,E,1,30,,45.742,M,,M,,*47

[12:10:28.998]收←◆$GPGGA,041028,3958.92512,N,11620.23539,E,1,30,,46.822,M,,M,,*44

[12:10:30.004]收←◆$GPGGA,041029,3958.92517,N,11620.235,E,1,30,,47.580,M,,M,,*4E

[12:10:30.999]收←◆$GPGGA,041030,3958.92508,N,11620.23456,E,1,30,,47.823,M,,M,,*4E

[12:10:31.998]收←◆$GPGGA,041031,3958.92503,N,11620.2343,E,1,29,,48.092,M,,M,,*71

[12:10:33.010]收←◆$GPGGA,041032,3958.92524,N,11620.23406,E,1,29,,48.401,M,,M,,*4C

[12:10:34.009]收←◆$GPGGA,041033,3958.92559,N,11620.23379,E,1,29,,48.796,M,,M,,*45

[12:10:35.010]收←◆$GPGGA,041034,3958.92584,N,11620.23353,E,1,29,,49.279,M,,M,,*4F

[12:10:36.017]收←◆$GPGGA,041035,3958.92589,N,11620.23353,E,1,29,,49.650,M,,M,,*4C

[12:10:37.013]收←◆$GPGGA,041036,3958.92619,N,11620.23298,E,1,29,,50.077,M,,M,,*48

[12:10:38.017]收←◆$GPGGA,041037,3958.92638,N,11620.23255,E,1,30,,50.649,M,,M,,*48

[12:10:39.017]收←◆$GPGGA,041038,3958.92638,N,11620.23255,E,1,29,,50.649,M,,M,,*4F

[12:10:40.020]收←◆$GPGGA,041039,3958.92638,N,11620.23255,E,1,29,,50.649,M,,M,,*4E

[12:10:41.021]收←◆$GPGGA,041040,3958.92635,N,11620.23264,E,1,29,,50.757,M,,M,,*41

[12:10:42.025]收←◆$GPGGA,041041,3958.92627,N,11620.23296,E,1,29,,50.904,M,,M,,*46

[12:10:43.046]收←◆$GPGGA,041042,3958.92617,N,11620.23317,E,1,29,,51.107,M,,M,,*44

[12:10:44.032]收←◆$GPGGA,041043,3958.92609,N,11620.23346,E,1,29,,51.501,M,,M,,*4C

[12:10:45.025]收←◆$GPGGA,041044,3958.92599,N,11620.23402,E,1,29,,51.777,M,,M,,*45

[12:10:46.030]收←◆$GPGGA,041044,3958.92599,N,11620.23402,E,1,29,,51.777,M,,M,,*45

[12:10:47.039]收←◆$GPGGA,041046,3958.92521,N,11620.23583,E,1,29,,50.955,M,,M,,*43

[12:10:48.022]收←◆$GPGGA,041047,3958.92493,N,11620.23668,E,1,29,,50.252,M,,M,,*40

[12:10:49.041]收←◆$GPGGA,041048,3958.92459,N,11620.23817,E,1,28,,49.755,M,,M,,*44

[12:10:50.047]收←◆$GPGGA,041049,3958.92353,N,11620.2437,E,1,28,,54.294,M,,M,,*71

[12:10:51.026]收←◆$GPGGA,041050,3958.92267,N,11620.24576,E,1,29,,53.819,M,,M,,*46

[12:10:52.036]收←◆$GPGGA,041051,3958.9224,N,11620.24767,E,1,31,,53.093,M,,M,,*73

[12:10:53.039]收←◆$GPGGA,041052,3958.92208,N,11620.24921,E,1,31,,53.197,M,,M,,*45

[12:10:54.042]收←◆$GPGGA,041053,3958.92211,N,11620.25047,E,1,31,,53.514,M,,M,,*4B

[12:10:55.042]收←◆$GPGGA,041054,3958.92251,N,11620.25176,E,1,31,,53.840,M,,M,,*47

[12:10:56.035]收←◆$GPGGA,041055,3958.92259,N,11620.25259,E,1,30,,53.904,M,,M,,*40

[12:10:57.031]收←◆$GPGGA,041056,3958.9234,N,11620.25389,E,1,30,,54.737,M,,M,,*7F

[12:10:58.038]收←◆$GPGGA,041057,3958.92424,N,11620.25502,E,1,30,,55.261,M,,M,,*49

[12:10:59.041]收←◆$GPGGA,041058,3958.92608,N,11620.25708,E,1,30,,56.458,M,,M,,*4D

[12:11:00.055]收←◆$GPGGA,041059,3958.92629,N,11620.2578,E,1,30,,56.513,M,,M,,*71

[12:11:01.057]收←◆$GPGGA,041100,3958.92664,N,11620.25853,E,1,30,,56.770,M,,M,,*43

[12:11:02.056]收←◆$GPGGA,041101,3958.92696,N,11620.25945,E,1,30,,56.978,M,,M,,*4F

[12:11:03.054]收←◆$GPGGA,041102,3958.92717,N,11620.26022,E,1,29,,57.107,M,,M,,*46

[12:11:04.056]收←◆$GPGGA,041102,3958.92717,N,11620.26022,E,1,29,,57.107,M,,M,,*46

[12:11:05.046]收←◆$GPGGA,041104,3958.92757,N,11620.26203,E,1,30,,57.272,M,,M,,*4C

[12:11:06.056]收←◆$GPGGA,041105,3958.92779,N,11620.26301,E,1,31,,57.303,M,,M,,*44

[12:11:07.043]收←◆$GPGGA,041106,3958.92802,N,11620.26395,E,1,31,,57.401,M,,M,,*4C

[12:11:08.090]收←◆$GPGGA,041107,3958.92814,N,11620.26472,E,1,31,,57.511,M,,M,,*44

[12:11:09.054]收←◆$GPGGA,041108,3958.92842,N,11620.26572,E,1,31,,57.575,M,,M,,*4B

[12:11:10.064]收←◆$GPGGA,041109,3958.92865,N,11620.26716,E,1,31,,57.656,M,,M,,*4D

[12:11:11.081]收←◆$GPGGA,041110,3958.9289,N,11620.26897,E,1,32,,57.225,M,,M,,*7A

[12:11:12.082]收←◆$GPGGA,041111,3958.92908,N,11620.2707,E,1,32,,55.719,M,,M,,*73

[12:11:13.069]收←◆$GPGGA,041112,3958.92929,N,11620.27278,E,1,31,,54.207,M,,M,,*41

[12:11:14.083]收←◆$GPGGA,041113,3958.9293,N,11620.2742,E,1,31,,53.257,M,,M,,*41

[12:11:15.119]收←◆$GPGGA,041114,3958.92945,N,11620.27542,E,1,31,,52.204,M,,M,,*46

[12:11:16.077]收←◆$GPGGA,041115,3958.92941,N,11620.27626,E,1,31,,51.328,M,,M,,*4E

[12:11:17.080]收←◆$GPGGA,041116,3958.92938,N,11620.27708,E,1,31,,51.132,M,,M,,*47

[12:11:18.091]收←◆$GPGGA,041117,3958.92939,N,11620.27786,E,1,31,,50.945,M,,M,,*48

[12:11:19.076]收←◆$GPGGA,041118,3958.92923,N,11620.2782,E,1,31,,50.831,M,,M,,*7D

[12:11:20.090]收←◆$GPGGA,041119,3958.92909,N,11620.27811,E,1,31,,50.605,M,,M,,*4F

[12:11:21.097]收←◆$GPGGA,041120,3958.92909,N,11620.27749,E,1,31,,50.385,M,,M,,*4A

[12:11:22.084]收←◆$GPGGA,041120,3958.92909,N,11620.27749,E,1,31,,50.385,M,,M,,*4A

[12:11:23.094]收←◆$GPGGA,041122,3958.92967,N,11620.275,E,1,31,,50.065,M,,M,,*42

[12:11:24.088]收←◆$GPGGA,041123,3958.92989,N,11620.27391,E,1,32,,49.932,M,,M,,*4D

[12:11:25.101]收←◆$GPGGA,041124,3958.93002,N,11620.27311,E,1,32,,49.950,M,,M,,*4D

[12:11:26.095]收←◆$GPGGA,041125,3958.93006,N,11620.27215,E,1,32,,49.913,M,,M,,*4A

[12:11:27.117]收←◆$GPGGA,041126,3958.93017,N,11620.27124,E,1,32,,49.820,M,,M,,*49

[12:11:28.112]收←◆$GPGGA,041127,3958.92993,N,11620.27012,E,1,32,,49.890,M,,M,,*43

[12:11:29.101]收←◆$GPGGA,041128,3958.92975,N,11620.26896,E,1,32,,49.795,M,,M,,*4B

[12:11:30.112]收←◆$GPGGA,041129,3958.92975,N,11620.26807,E,1,32,,49.863,M,,M,,*44

[12:11:31.096]收←◆$GPGGA,041130,3958.92969,N,11620.26695,E,1,31,,50.051,M,,M,,*46

[12:11:32.096]收←◆$GPGGA,041131,3958.92943,N,11620.26563,E,1,31,,50.265,M,,M,,*40

[12:11:33.117]收←◆$GPGGA,041132,3958.92856,N,11620.26316,E,1,31,,55.222,M,,M,,*44

[12:11:34.134]收←◆$GPGGA,041133,3958.92884,N,11620.26091,E,1,31,,58.411,M,,M,,*4D

[12:11:35.120]收←◆$GPGGA,041134,3958.9272,N,11620.25838,E,1,31,,59.141,M,,M,,*72

[12:11:36.119]收←◆$GPGGA,041135,3958.92621,N,11620.2566,E,1,30,,59.624,M,,M,,*75

[12:11:37.133]收←◆$GPGGA,041136,3958.92603,N,11620.25493,E,1,30,,58.615,M,,M,,*4B

[12:11:38.131]收←◆$GPGGA,041137,3958.92504,N,11620.25254,E,1,30,,59.370,M,,M,,*44

[12:11:39.131]收←◆$GPGGA,041138,3958.92434,N,11620.2507,E,1,30,,59.817,M,,M,,*77

[12:11:40.124]收←◆$GPGGA,041139,3958.92329,N,11620.24937,E,1,30,,61.470,M,,M,,*40

[12:11:41.123]收←◆$GPGGA,041140,3958.92306,N,11620.24821,E,1,30,,61.343,M,,M,,*42

[12:11:42.139]收←◆$GPGGA,041141,3958.92291,N,11620.24706,E,1,30,,61.670,M,,M,,*43

[12:11:43.114]收←◆$GPGGA,041142,3958.92305,N,11620.24591,E,1,30,,61.862,M,,M,,*4D

[12:11:44.123]收←◆$GPGGA,041143,3958.92293,N,11620.24439,E,1,31,,62.388,M,,M,,*4C

[12:11:45.129]收←◆$GPGGA,041144,3958.92311,N,11620.24291,E,1,32,,62.759,M,,M,,*4F

[12:11:46.147]收←◆$GPGGA,041145,3958.92224,N,11620.2411,E,1,32,,63.385,M,,M,,*77

[12:11:47.137]收←◆$GPGGA,041146,3958.92199,N,11620.23972,E,1,32,,63.642,M,,M,,*44

[12:11:48.158]收←◆$GPGGA,041147,3958.92196,N,11620.23856,E,1,32,,63.933,M,,M,,*44

[12:11:49.135]收←◆$GPGGA,041148,3958.92184,N,11620.23756,E,1,32,,64.097,M,,M,,*47

[12:11:50.137]收←◆$GPGGA,041149,3958.92165,N,11620.23659,E,1,32,,64.384,M,,M,,*46

[12:11:51.151]收←◆$GPGGA,041150,3958.9218,N,11620.23573,E,1,31,,64.457,M,,M,,*74

[12:11:52.174]收←◆$GPGGA,041151,3958.92186,N,11620.23466,E,1,31,,64.576,M,,M,,*44

[12:11:53.139]收←◆$GPGGA,041152,3958.92172,N,11620.23331,E,1,31,,64.892,M,,M,,*4E

[12:11:54.150]收←◆$GPGGA,041153,3958.92146,N,11620.23162,E,1,31,,65.741,M,,M,,*4C

[12:11:55.141]收←◆$GPGGA,041154,3958.92085,N,11620.23029,E,1,32,,65.987,M,,M,,*4C

[12:11:56.164]收←◆$GPGGA,041155,3958.92059,N,11620.22936,E,1,33,,66.103,M,,M,,*4C

[12:11:57.186]收←◆$GPGGA,041156,3958.92096,N,11620.22872,E,1,34,,66.771,M,,M,,*49

[12:11:58.173]收←◆$GPGGA,041157,3958.92094,N,11620.22783,E,1,33,,67.174,M,,M,,*4E

[12:11:59.158]收←◆$GPGGA,041158,3958.92105,N,11620.22674,E,1,33,,67.476,M,,M,,*46

[12:12:00.162]收←◆$GPGGA,041159,3958.9212,N,11620.22545,E,1,33,,67.734,M,,M,,*74

[12:12:01.164]收←◆$GPGGA,041200,3958.92154,N,11620.22411,E,1,33,,67.984,M,,M,,*4D

[12:12:02.166]收←◆$GPGGA,041201,3958.9219,N,11620.22287,E,1,33,,68.241,M,,M,,*70

[12:12:03.171]收←◆$GPGGA,041202,3958.92222,N,11620.22194,E,1,32,,68.459,M,,M,,*46

[12:12:04.183]收←◆$GPGGA,041203,3958.92248,N,11620.22084,E,1,32,,68.635,M,,M,,*43

[12:12:05.184]收←◆$GPGGA,041204,3958.92267,N,11620.21972,E,1,32,,68.790,M,,M,,*44

[12:12:06.175]收←◆$GPGGA,041205,3958.92295,N,11620.21859,E,1,32,,68.881,M,,M,,*4F

[12:12:07.173]收←◆$GPGGA,041206,3958.92322,N,11620.21734,E,1,32,,68.925,M,,M,,*4A

[12:12:08.174]收←◆$GPGGA,041207,3958.92348,N,11620.21611,E,1,33,,69.022,M,,M,,*4F

[12:12:09.175]收←◆$GPGGA,041208,3958.92367,N,11620.21499,E,1,33,,69.170,M,,M,,*49

[12:12:10.175]收←◆$GPGGA,041209,3958.92397,N,11620.21371,E,1,33,,69.158,M,,M,,*4C

[12:12:11.191]收←◆$GPGGA,041210,3958.92422,N,11620.21239,E,1,32,,69.152,M,,M,,*4B

[12:12:12.200]收←◆$GPGGA,041211,3958.92444,N,11620.21121,E,1,32,,69.168,M,,M,,*49

[12:12:13.171]收←◆$GPGGA,041212,3958.92447,N,11620.21001,E,1,32,,69.204,M,,M,,*43

[12:12:14.196]收←◆$GPGGA,041213,3958.92452,N,11620.20898,E,1,32,,69.133,M,,M,,*48

[12:12:15.193]收←◆$GPGGA,041214,3958.92456,N,11620.20802,E,1,32,,69.091,M,,M,,*41

[12:12:16.185]收←◆$GPGGA,041215,3958.92469,N,11620.20696,E,1,32,,68.943,M,,M,,*48

[12:12:17.204]收←◆$GPGGA,041216,3958.92468,N,11620.20574,E,1,32,,68.795,M,,M,,*40

[12:12:18.187]收←◆$GPGGA,041217,3958.92465,N,11620.2046,E,1,32,,68.674,M,,M,,*76

[12:12:19.191]收←◆$GPGGA,041218,3958.92466,N,11620.20355,E,1,32,,68.553,M,,M,,*4D

[12:12:20.218]收←◆$GPGGA,041219,3958.92475,N,11620.2023,E,1,32,,68.277,M,,M,,*7D

[12:12:21.199]收←◆$GPGGA,041220,3958.92489,N,11620.2011,E,1,32,,68.105,M,,M,,*73

[12:12:22.202]收←◆$GPGGA,041221,3958.92501,N,11620.20005,E,1,32,,67.976,M,,M,,*45

[12:12:23.209]收←◆$GPGGA,041222,3958.92505,N,11620.199,E,1,31,,67.847,M,,M,,*44

[12:12:24.213]收←◆$GPGGA,041223,3958.92479,N,11620.19808,E,1,31,,67.689,M,,M,,*4A

[12:12:25.208]收←◆$GPGGA,041224,3958.92457,N,11620.19745,E,1,31,,66.994,M,,M,,*45

[12:12:26.199]收←◆$GPGGA,041225,3958.92458,N,11620.19659,E,1,31,,66.768,M,,M,,*4A

[12:12:27.204]收←◆$GPGGA,041226,3958.9245,N,11620.19561,E,1,32,,66.355,M,,M,,*70

[12:12:28.219]收←◆$GPGGA,041227,3958.9244,N,11620.19452,E,1,32,,65.844,M,,M,,*79

[12:12:29.203]收←◆$GPGGA,041228,3958.92437,N,11620.19332,E,1,32,,65.443,M,,M,,*4C

[12:12:30.210]收←◆$GPGGA,041229,3958.92438,N,11620.19229,E,1,32,,65.031,M,,M,,*48

[12:12:31.216]收←◆$GPGGA,041230,3958.92446,N,11620.19131,E,1,32,,64.634,M,,M,,*41

[12:12:32.210]收←◆$GPGGA,041231,3958.92422,N,11620.19007,E,1,32,,64.052,M,,M,,*40

[12:12:33.208]收←◆$GPGGA,041232,3958.92418,N,11620.18882,E,1,32,,63.391,M,,M,,*45

[12:12:34.229]收←◆$GPGGA,041233,3958.92411,N,11620.18754,E,1,32,,62.954,M,,M,,*4B

[12:12:35.221]收←◆$GPGGA,041234,3958.92398,N,11620.18646,E,1,32,,63.281,M,,M,,*4A

[12:12:36.215]收←◆$GPGGA,041235,3958.92399,N,11620.18527,E,1,32,,63.204,M,,M,,*43

[12:12:37.224]收←◆$GPGGA,041236,3958.92422,N,11620.18402,E,1,32,,62.036,M,,M,,*43

[12:12:38.233]收←◆$GPGGA,041237,3958.92443,N,11620.18263,E,1,32,,61.421,M,,M,,*45

[12:12:39.243]收←◆$GPGGA,041238,3958.9246,N,11620.18113,E,1,32,,60.778,M,,M,,*71

[12:12:40.219]收←◆$GPGGA,041239,3958.92476,N,11620.17953,E,1,32,,60.422,M,,M,,*48

[12:12:41.232]收←◆$GPGGA,041240,3958.92471,N,11620.17815,E,1,31,,59.788,M,,M,,*48

[12:12:42.217]收←◆$GPGGA,041241,3958.92468,N,11620.17684,E,1,31,,58.927,M,,M,,*4D

[12:12:43.226]收←◆$GPGGA,041242,3958.92476,N,11620.17564,E,1,31,,58.400,M,,M,,*44

[12:12:44.237]收←◆$GPGGA,041243,3958.92496,N,11620.17422,E,1,31,,58.163,M,,M,,*48

[12:12:45.241]收←◆$GPGGA,041244,3958.92501,N,11620.17301,E,1,31,,58.229,M,,M,,*4B

[12:12:46.219]收←◆$GPGGA,041245,3958.92521,N,11620.17196,E,1,31,,57.944,M,,M,,*4B

[12:12:47.233]收←◆$GPGGA,041246,3958.92516,N,11620.17128,E,1,31,,57.588,M,,M,,*45

[12:12:48.222]收←◆$GPGGA,041247,3958.92498,N,11620.17071,E,1,31,,57.625,M,,M,,*4A

[12:12:49.223]收←◆$GPGGA,041248,3958.92491,N,11620.16979,E,1,32,,57.470,M,,M,,*4D

[12:12:50.241]收←◆$GPGGA,041249,3958.92501,N,11620.16831,E,1,32,,56.882,M,,M,,*49

[12:12:51.238]收←◆$GPGGA,041250,3958.92497,N,11620.16671,E,1,32,,56.394,M,,M,,*49

[12:12:52.254]收←◆$GPGGA,041251,3958.92498,N,11620.16533,E,1,32,,55.574,M,,M,,*49

[12:12:53.276]收←◆$GPGGA,041252,3958.92499,N,11620.16394,E,1,32,,55.084,M,,M,,*4A

[12:12:54.257]收←◆$GPGGA,041253,3958.92486,N,11620.16234,E,1,32,,54.870,M,,M,,*4C

[12:12:55.252]收←◆$GPGGA,041254,3958.92481,N,11620.16113,E,1,32,,54.788,M,,M,,*42

[12:12:56.243]收←◆$GPGGA,041255,3958.92483,N,11620.15974,E,1,32,,56.553,M,,M,,*4D

[12:12:57.263]收←◆$GPGGA,041256,3958.9244,N,11620.15971,E,1,31,,59.019,M,,M,,*73

[12:12:58.252]收←◆$GPGGA,041257,3958.92463,N,11620.15915,E,1,31,,59.693,M,,M,,*45

[12:12:59.251]收←◆$GPGGA,041258,3958.92479,N,11620.15814,E,1,31,,60.512,M,,M,,*41

[12:13:00.245]收←◆$GPGGA,041259,3958.92474,N,11620.15659,E,1,31,,61.371,M,,M,,*48

[12:13:01.269]收←◆$GPGGA,041300,3958.92441,N,11620.15452,E,1,31,,62.247,M,,M,,*4D

[12:13:02.259]收←◆$GPGGA,041301,3958.92413,N,11620.15253,E,1,31,,61.987,M,,M,,*48

[12:13:03.260]收←◆$GPGGA,041302,3958.92413,N,11620.15166,E,1,31,,61.942,M,,M,,*47

[12:13:04.266]收←◆$GPGGA,041303,3958.92435,N,11620.15071,E,1,31,,61.857,M,,M,,*40

[12:13:05.250]收←◆$GPGGA,041304,3958.92447,N,11620.14973,E,1,31,,61.785,M,,M,,*48

[12:13:06.272]收←◆$GPGGA,041305,3958.92435,N,11620.14898,E,1,31,,61.754,M,,M,,*44

[12:13:07.264]收←◆$GPGGA,041306,3958.9242,N,11620.14839,E,1,31,,61.744,M,,M,,*79

[12:13:08.256]收←◆$GPGGA,041307,3958.92395,N,11620.14781,E,1,31,,61.720,M,,M,,*4F

[12:13:09.277]收←◆$GPGGA,041308,3958.92363,N,11620.14787,E,1,31,,61.536,M,,M,,*4A

[12:13:10.272]收←◆$GPGGA,041309,3958.923,N,11620.14813,E,1,31,,61.188,M,,M,,*4D

[12:13:11.275]收←◆$GPGGA,041310,3958.92231,N,11620.14826,E,1,31,,60.952,M,,M,,*4E

[12:13:12.283]收←◆$GPGGA,041311,3958.92149,N,11620.14863,E,1,31,,60.698,M,,M,,*4B

[12:13:13.271]收←◆$GPGGA,041312,3958.92105,N,11620.15069,E,1,30,,60.148,M,,M,,*48

[12:13:14.269]收←◆$GPGGA,041313,3958.92027,N,11620.15223,E,1,30,,60.483,M,,M,,*46

[12:13:15.260]收←◆$GPGGA,041314,3958.91952,N,11620.1525,E,1,30,,60.417,M,,M,,*70

[12:13:16.288]收←◆$GPGGA,041315,3958.91889,N,11620.15256,E,1,30,,60.308,M,,M,,*49

[12:13:17.273]收←◆$GPGGA,041316,3958.91827,N,11620.15272,E,1,30,,60.057,M,,M,,*41

[12:13:18.276]收←◆$GPGGA,041317,3958.91755,N,11620.15298,E,1,29,,59.951,M,,M,,*43

[12:13:19.271]收←◆$GPGGA,041318,3958.91693,N,11620.15324,E,1,30,,59.905,M,,M,,*48

[12:13:20.295]收←◆$GPGGA,041319,3958.91646,N,11620.15339,E,1,30,,59.760,M,,M,,*40

[12:13:21.287]收←◆$GPGGA,041320,3958.91601,N,11620.15372,E,1,31,,59.652,M,,M,,*47

[12:13:22.296]收←◆$GPGGA,041321,3958.91536,N,11620.15398,E,1,31,,59.536,M,,M,,*44

[12:13:23.304]收←◆$GPGGA,041322,3958.91464,N,11620.15423,E,1,31,,59.369,M,,M,,*4A

[12:13:24.305]收←◆$GPGGA,041323,3958.91395,N,11620.15455,E,1,32,,59.357,M,,M,,*4D

[12:13:25.288]收←◆$GPGGA,041324,3958.91302,N,11620.15456,E,1,33,,59.132,M,,M,,*47

[12:13:26.299]收←◆$GPGGA,041325,3958.91199,N,11620.15454,E,1,32,,58.998,M,,M,,*4C

[12:13:27.292]收←◆$GPGGA,041326,3958.91102,N,11620.15463,E,1,32,,58.808,M,,M,,*41

[12:13:28.312]收←◆$GPGGA,041327,3958.91004,N,11620.1549,E,1,32,,58.720,M,,M,,*7E

[12:13:29.301]收←◆$GPGGA,041328,3958.90902,N,11620.15501,E,1,32,,58.647,M,,M,,*46

[12:13:30.303]收←◆$GPGGA,041329,3958.9081,N,11620.15512,E,1,32,,58.635,M,,M,,*72

[12:13:31.308]收←◆$GPGGA,041330,3958.90725,N,11620.1552,E,1,34,,58.488,M,,M,,*70

[12:13:32.311]收←◆$GPGGA,041331,3958.90629,N,11620.1552,E,1,34,,58.230,M,,M,,*79

[12:13:33.314]收←◆$GPGGA,041332,3958.90532,N,11620.15523,E,1,33,,57.881,M,,M,,*48

[12:13:34.348]收←◆$GPGGA,041333,3958.90435,N,11620.15528,E,1,33,,57.511,M,,M,,*40

[12:13:35.293]收←◆$GPGGA,041334,3958.90344,N,11620.15538,E,1,34,,57.296,M,,M,,*48

[12:13:36.297]收←◆$GPGGA,041335,3958.90273,N,11620.15577,E,1,34,,56.897,M,,M,,*4D

[12:13:37.310]收←◆$GPGGA,041336,3958.90234,N,11620.15644,E,1,34,,56.576,M,,M,,*4C

[12:13:38.336]收←◆$GPGGA,041337,3958.90207,N,11620.15705,E,1,34,,56.335,M,,M,,*48

[12:13:39.331]收←◆$GPGGA,041338,3958.90222,N,11620.15661,E,1,34,,55.121,M,,M,,*47

[12:13:40.322]收←◆$GPGGA,041339,3958.90178,N,11620.15736,E,1,33,,55.100,M,,M,,*4D

[12:13:41.341]收←◆$GPGGA,041340,3958.90142,N,11620.15829,E,1,33,,54.084,M,,M,,*47

[12:13:42.325]收←◆$GPGGA,041341,3958.90128,N,11620.15925,E,1,33,,53.560,M,,M,,*4F

[12:13:43.346]收←◆$GPGGA,041342,3958.90134,N,11620.16026,E,1,33,,53.285,M,,M,,*44

[12:13:44.329]收←◆$GPGGA,041343,3958.90151,N,11620.16121,E,1,33,,53.035,M,,M,,*49

[12:13:45.336]收←◆$GPGGA,041344,3958.90163,N,11620.16206,E,1,33,,52.849,M,,M,,*4B

[12:13:46.356]收←◆$GPGGA,041345,3958.90178,N,11620.16288,E,1,33,,52.617,M,,M,,*43

[12:13:47.343]收←◆$GPGGA,041346,3958.90194,N,11620.16366,E,1,33,,52.490,M,,M,,*4E

[12:13:48.349]收←◆$GPGGA,041347,3958.90213,N,11620.16447,E,1,33,,52.385,M,,M,,*44

[12:13:49.334]收←◆$GPGGA,041348,3958.90225,N,11620.16531,E,1,33,,52.172,M,,M,,*44

[12:13:50.353]收←◆$GPGGA,041349,3958.90331,N,11620.16636,E,1,33,,51.865,M,,M,,*49

[12:13:51.356]收←◆$GPGGA,041350,3958.90356,N,11620.1668,E,1,33,,51.247,M,,M,,*77

[12:13:52.345]收←◆$GPGGA,041351,3958.90412,N,11620.16806,E,1,33,,51.220,M,,M,,*40

[12:13:53.347]收←◆$GPGGA,041352,3958.90429,N,11620.1689,E,1,33,,50.926,M,,M,,*78

[12:13:54.361]收←◆$GPGGA,041353,3958.90405,N,11620.16977,E,1,33,,51.153,M,,M,,*44

[12:13:55.347]收←◆$GPGGA,041354,3958.90364,N,11620.17122,E,1,33,,50.401,M,,M,,*49

[12:13:56.371]收←◆$GPGGA,041355,3958.90378,N,11620.1723,E,1,33,,49.767,M,,M,,*7E

[12:13:57.364]收←◆$GPGGA,041356,3958.9041,N,11620.17337,E,1,33,,49.024,M,,M,,*72

[12:13:58.367]收←◆$GPGGA,041357,3958.90433,N,11620.17448,E,1,33,,49.018,M,,M,,*42

[12:13:59.353]收←◆$GPGGA,041358,3958.90473,N,11620.17596,E,1,33,,49.979,M,,M,,*45

[12:14:00.396]收←◆$GPGGA,041359,3958.90466,N,11620.17758,E,1,33,,50.430,M,,M,,*48

[12:14:01.404]收←◆$GPGGA,041400,3958.90422,N,11620.17918,E,1,33,,51.649,M,,M,,*44

[12:14:02.377]收←◆$GPGGA,041401,3958.90377,N,11620.18054,E,1,33,,52.190,M,,M,,*4C

[12:14:03.395]收←◆$GPGGA,041402,3958.90359,N,11620.18175,E,1,33,,52.494,M,,M,,*40

[12:14:04.368]收←◆$GPGGA,041403,3958.90356,N,11620.18299,E,1,34,,52.634,M,,M,,*40

[12:14:05.358]收←◆$GPGGA,041404,3958.90412,N,11620.18377,E,1,34,,52.512,M,,M,,*46

[12:14:06.364]收←◆$GPGGA,041405,3958.90412,N,11620.18448,E,1,34,,52.681,M,,M,,*45

[12:14:07.394]收←◆$GPGGA,041406,3958.90428,N,11620.18559,E,1,34,,53.385,M,,M,,*4E

[12:14:08.428]收←◆$GPGGA,041407,3958.90404,N,11620.18642,E,1,34,,53.599,M,,M,,*43

[12:14:09.391]收←◆$GPGGA,041408,3958.90417,N,11620.18751,E,1,34,,54.070,M,,M,,*48

[12:14:10.388]收←◆$GPGGA,041409,3958.90412,N,11620.18866,E,1,34,,54.457,M,,M,,*46

[12:14:11.425]收←◆$GPGGA,041410,3958.90479,N,11620.1901,E,1,34,,54.041,M,,M,,*78

[12:14:12.386]收←◆$GPGGA,041411,3958.90476,N,11620.19171,E,1,34,,54.255,M,,M,,*47

[12:14:13.371]收←◆$GPGGA,041412,3958.90441,N,11620.1925,E,1,34,,53.721,M,,M,,*71

[12:14:14.402]收←◆$GPGGA,041413,3958.90426,N,11620.19346,E,1,34,,53.398,M,,M,,*41

[12:14:15.405]收←◆$GPGGA,041414,3958.90436,N,11620.19409,E,1,34,,52.869,M,,M,,*4F

[12:14:16.408]收←◆$GPGGA,041415,3958.90426,N,11620.19485,E,1,33,,52.854,M,,M,,*42

[12:14:17.387]收←◆$GPGGA,041416,3958.90405,N,11620.19551,E,1,33,,53.497,M,,M,,*4A

[12:14:18.427]收←◆$GPGGA,041417,3958.9044,N,11620.19666,E,1,33,,53.822,M,,M,,*7F

[12:14:19.389]收←◆$GPGGA,041418,3958.90432,N,11620.19748,E,1,33,,53.716,M,,M,,*40

[12:14:20.401]收←◆$GPGGA,041419,3958.9043,N,11620.1985,E,1,33,,53.817,M,,M,,*4B

[12:14:21.386]收←◆$GPGGA,041420,3958.90432,N,11620.19942,E,1,33,,53.843,M,,M,,*40

[12:14:22.400]收←◆$GPGGA,041421,3958.90421,N,11620.20031,E,1,33,,53.806,M,,M,,*45

[12:14:23.400]收←◆$GPGGA,041422,3958.90405,N,11620.20132,E,1,34,,53.766,M,,M,,*4C

[12:14:24.413]收←◆$GPGGA,041423,3958.90386,N,11620.20234,E,1,34,,53.736,M,,M,,*41

[12:14:25.408]收←◆$GPGGA,041424,3958.90401,N,11620.20356,E,1,33,,53.820,M,,M,,*44

[12:14:26.422]收←◆$GPGGA,041425,3958.90397,N,11620.20468,E,1,33,,53.799,M,,M,,*4A

[12:14:27.415]收←◆$GPGGA,041426,3958.9038,N,11620.20644,E,1,32,,53.902,M,,M,,*7E

[12:14:28.418]收←◆$GPGGA,041427,3958.90404,N,11620.20738,E,1,32,,53.722,M,,M,,*42

[12:14:29.419]收←◆$GPGGA,041428,3958.90412,N,11620.20834,E,1,32,,52.761,M,,M,,*4F

[12:14:30.420]收←◆$GPGGA,041429,3958.90439,N,11620.20942,E,1,32,,52.337,M,,M,,*40

[12:14:31.413]收←◆$GPGGA,041430,3958.90494,N,11620.21035,E,1,32,,50.791,M,,M,,*4D

[12:14:32.461]收←◆$GPGGA,041431,3958.90495,N,11620.21128,E,1,32,,49.012,M,,M,,*44

[12:14:33.428]收←◆$GPGGA,041432,3958.9049,N,11620.21261,E,1,32,,47.644,M,,M,,*77

[12:14:34.410]收←◆$GPGGA,041433,3958.90511,N,11620.21405,E,1,33,,46.315,M,,M,,*4B

[12:14:35.408]收←◆$GPGGA,041434,3958.90538,N,11620.21502,E,1,33,,45.680,M,,M,,*4B

[12:14:36.413]收←◆$GPGGA,041435,3958.90581,N,11620.21651,E,1,33,,44.649,M,,M,,*49

[12:14:37.427]收←◆$GPGGA,041436,3958.90585,N,11620.21757,E,1,33,,44.279,M,,M,,*4E

[12:14:38.418]收←◆$GPGGA,041437,3958.90579,N,11620.21849,E,1,33,,43.946,M,,M,,*4C

[12:14:39.426]收←◆$GPGGA,041438,3958.90578,N,11620.21938,E,1,33,,43.612,M,,M,,*4B

[12:14:40.416]收←◆$GPGGA,041439,3958.90575,N,11620.22026,E,1,33,,43.320,M,,M,,*46

[12:14:41.465]收←◆$GPGGA,041440,3958.90574,N,11620.22109,E,1,32,,43.005,M,,M,,*40

[12:14:42.432]收←◆$GPGGA,041441,3958.90568,N,11620.22129,E,1,32,,42.966,M,,M,,*43

[12:14:43.435]收←◆$GPGGA,041442,3958.90567,N,11620.22236,E,1,32,,43.095,M,,M,,*46

[12:14:44.427]收←◆$GPGGA,041443,3958.90612,N,11620.22396,E,1,31,,43.165,M,,M,,*40

[12:14:45.443]收←◆$GPGGA,041444,3958.9058,N,11620.22537,E,1,31,,43.451,M,,M,,*70

[12:14:46.479]收←◆$GPGGA,041445,3958.90544,N,11620.2267,E,1,32,,43.204,M,,M,,*7C

[12:14:47.441]收←◆$GPGGA,041446,3958.90531,N,11620.22799,E,1,33,,42.683,M,,M,,*40

[12:14:48.444]收←◆$GPGGA,041447,3958.90564,N,11620.22953,E,1,33,,42.132,M,,M,,*44

[12:14:49.437]收←◆$GPGGA,041448,3958.90568,N,11620.23096,E,1,33,,41.725,M,,M,,*45

[12:14:50.441]收←◆$GPGGA,041449,3958.90561,N,11620.23172,E,1,33,,44.403,M,,M,,*44

[12:14:51.435]收←◆$GPGGA,041450,3958.90605,N,11620.23206,E,1,33,,47.270,M,,M,,*4C

[12:14:52.432]收←◆$GPGGA,041451,3958.90601,N,11620.23352,E,1,33,,48.393,M,,M,,*4A

[12:14:53.452]收←◆$GPGGA,041452,3958.90552,N,11620.23442,E,1,31,,48.605,M,,M,,*42

[12:14:54.477]收←◆$GPGGA,041453,3958.90574,N,11620.23576,E,1,31,,49.840,M,,M,,*4F

[12:14:55.454]收←◆$GPGGA,041454,3958.90566,N,11620.23709,E,1,31,,50.668,M,,M,,*4D

[12:14:56.454]收←◆$GPGGA,041455,3958.90621,N,11620.23793,E,1,31,,51.062,M,,M,,*42

[12:14:57.440]收←◆$GPGGA,041456,3958.90677,N,11620.2393,E,1,31,,51.244,M,,M,,*73

[12:14:58.453]收←◆$GPGGA,041457,3958.90736,N,11620.24061,E,1,31,,51.698,M,,M,,*49

[12:14:59.462]收←◆$GPGGA,041458,3958.90794,N,11620.24196,E,1,33,,52.682,M,,M,,*4D

[12:15:00.436]收←◆$GPGGA,041459,3958.90799,N,11620.24289,E,1,33,,53.354,M,,M,,*43

[12:15:01.470]收←◆$GPGGA,041500,3958.90874,N,11620.24372,E,1,33,,54.697,M,,M,,*4A

[12:15:02.455]收←◆$GPGGA,041501,3958.9092,N,11620.24459,E,1,33,,55.558,M,,M,,*74

[12:15:03.468]收←◆$GPGGA,041502,3958.90953,N,11620.24572,E,1,33,,56.564,M,,M,,*47

[12:15:04.472]收←◆$GPGGA,041503,3958.90956,N,11620.24749,E,1,33,,57.815,M,,M,,*43

[12:15:05.455]收←◆$GPGGA,041504,3958.90983,N,11620.24828,E,1,33,,58.315,M,,M,,*40

[12:15:06.456]收←◆$GPGGA,041505,3958.90945,N,11620.2497,E,1,33,,58.910,M,,M,,*78

[12:15:07.460]收←◆$GPGGA,041506,3958.90938,N,11620.25122,E,1,32,,59.749,M,,M,,*4D

[12:15:08.473]收←◆$GPGGA,041507,3958.90954,N,11620.25097,E,1,32,,61.530,M,,M,,*4E

[12:15:09.466]收←◆$GPGGA,041508,3958.90936,N,11620.25163,E,1,32,,62.621,M,,M,,*4F
