
[17:13:15.576]收←◆$GPGGA,091305,3958.88897,N,11620.69496,E,1,31,,49.957,M,,M,,*49
$GPGGA,091305,3958.88897,N,11620.69496,E,1,31,,49.957,M,,M,,*49

[17:13:16.575]收←◆$GPGGA,091305,3958.88897,N,11620.69496,E,1,31,,49.957,M,,M,,*49

[17:13:17.574]收←◆$GPGGA,091305,3958.88897,N,11620.69496,E,1,31,,49.957,M,,M,,*49

[17:13:18.531]收←◆$GPGGA,091305,3958.88897,N,11620.69496,E,1,31,,49.957,M,,M,,*49

[17:13:19.562]收←◆$GPGGA,091305,3958.88897,N,11620.69496,E,1,31,,49.957,M,,M,,*49

[17:13:20.561]收←◆$GPGGA,091305,3958.88897,N,11620.69496,E,1,31,,49.957,M,,M,,*49

[17:13:21.590]收←◆$GPGGA,091305,3958.88897,N,11620.69496,E,1,31,,49.957,M,,M,,*49

[17:13:22.560]收←◆$GPGGA,091305,3958.88897,N,11620.69496,E,1,31,,49.957,M,,M,,*49

[17:13:23.553]收←◆$GPGGA,091305,3958.88897,N,11620.69496,E,1,31,,49.957,M,,M,,*49

[17:13:24.567]收←◆$GPGGA,091305,3958.88897,N,11620.69496,E,1,31,,49.957,M,,M,,*49

[17:13:25.562]收←◆$GPGGA,091305,3958.88897,N,11620.69496,E,1,0,,49.957,M,,M,,*7B

[17:13:26.567]收←◆$GPGGA,091305,3958.88897,N,11620.69496,E,1,0,,49.957,M,,M,,*7B

[17:13:27.632]收←◆$GPGGA,091305,3958.88897,N,11620.69496,E,1,0,,49.957,M,,M,,*7B

[17:13:28.564]收←◆$GPGGA,091328,3958.88785,N,11620.70054,E,1,30,,46.307,M,,M,,*49

[17:13:29.627]收←◆$GPGGA,091329,3958.89285,N,11620.70571,E,1,31,,45.801,M,,M,,*41

[17:13:30.608]收←◆$GPGGA,091329,3958.89285,N,11620.70571,E,1,31,,45.801,M,,M,,*41

[17:13:31.639]收←◆$GPGGA,091329,3958.89285,N,11620.70571,E,1,31,,45.801,M,,M,,*41

[17:13:32.619]收←◆$GPGGA,091329,3958.89285,N,11620.70571,E,1,31,,45.801,M,,M,,*41

[17:13:33.583]收←◆$GPGGA,091329,3958.89285,N,11620.70571,E,1,31,,45.801,M,,M,,*41

[17:13:34.590]收←◆$GPGGA,091329,3958.89285,N,11620.70571,E,1,31,,45.801,M,,M,,*41

[17:13:35.637]收←◆$GPGGA,091329,3958.89285,N,11620.70571,E,1,31,,45.801,M,,M,,*41

[17:13:36.578]收←◆$GPGGA,091329,3958.89285,N,11620.70571,E,1,31,,45.801,M,,M,,*41

[17:13:37.626]收←◆$GPGGA,091329,3958.89285,N,11620.70571,E,1,31,,45.801,M,,M,,*41

[17:13:38.633]收←◆$GPGGA,091329,3958.89285,N,11620.70571,E,1,31,,45.801,M,,M,,*41

[17:13:39.582]收←◆$GPGGA,091329,3958.89285,N,11620.70571,E,1,31,,45.801,M,,M,,*41

[17:13:40.595]收←◆$GPGGA,091329,3958.89285,N,11620.70571,E,1,31,,45.801,M,,M,,*41

[17:13:41.592]收←◆$GPGGA,091329,3958.89285,N,11620.70571,E,1,31,,45.801,M,,M,,*41

[17:13:42.583]收←◆$GPGGA,091329,3958.89285,N,11620.70571,E,1,31,,45.801,M,,M,,*41

[17:13:43.595]收←◆$GPGGA,091329,3958.89285,N,11620.70571,E,1,31,,45.801,M,,M,,*41

[17:13:44.591]收←◆$GPGGA,091329,3958.89285,N,11620.70571,E,1,31,,45.801,M,,M,,*41

[17:13:45.637]收←◆$GPGGA,091329,3958.89285,N,11620.70571,E,1,31,,45.801,M,,M,,*41

[17:13:46.639]收←◆$GPGGA,091329,3958.89285,N,11620.70571,E,1,31,,45.801,M,,M,,*41

[17:13:47.602]收←◆$GPGGA,091329,3958.89285,N,11620.70571,E,1,31,,45.801,M,,M,,*41

[17:13:48.666]收←◆$GPGGA,091329,3958.89285,N,11620.70571,E,1,31,,45.801,M,,M,,*41

[17:13:49.644]收←◆$GPGGA,091329,3958.89285,N,11620.70571,E,1,31,,45.801,M,,M,,*41

[17:13:50.667]收←◆$GPGGA,091329,3958.89285,N,11620.70571,E,1,31,,45.801,M,,M,,*41

[17:13:51.640]收←◆$GPGGA,091329,3958.89285,N,11620.70571,E,1,31,,45.801,M,,M,,*41

[17:13:52.659]收←◆$GPGGA,091329,3958.89285,N,11620.70571,E,1,31,,45.801,M,,M,,*41

[17:13:53.658]收←◆$GPGGA,091329,3958.89285,N,11620.70571,E,1,31,,45.801,M,,M,,*41

[17:13:54.658]收←◆$GPGGA,091329,3958.89285,N,11620.70571,E,1,31,,45.801,M,,M,,*41

[17:13:55.616]收←◆$GPGGA,091329,3958.89285,N,11620.70571,E,1,31,,45.801,M,,M,,*41

[17:13:56.668]收←◆$GPGGA,091329,3958.89285,N,11620.70571,E,1,31,,45.801,M,,M,,*41

[17:13:57.676]收←◆$GPGGA,091329,3958.89285,N,11620.70571,E,1,31,,45.801,M,,M,,*41

[17:13:58.626]收←◆$GPGGA,091329,3958.89285,N,11620.70571,E,1,31,,45.801,M,,M,,*41

[17:13:59.712]收←◆$GPGGA,091329,3958.89285,N,11620.70571,E,1,31,,45.801,M,,M,,*41

[17:14:00.668]收←◆$GPGGA,091329,3958.89285,N,11620.70571,E,1,31,,45.801,M,,M,,*41

[17:14:01.722]收←◆$GPGGA,091329,3958.89285,N,11620.70571,E,1,31,,45.801,M,,M,,*41

[17:14:02.676]收←◆$GPGGA,091329,3958.89285,N,11620.70571,E,1,31,,45.801,M,,M,,*41

[17:14:03.670]收←◆$GPGGA,091329,3958.89285,N,11620.70571,E,1,31,,45.801,M,,M,,*41

[17:14:04.647]收←◆$GPGGA,091329,3958.89285,N,11620.70571,E,1,31,,45.801,M,,M,,*41

[17:14:05.650]收←◆$GPGGA,091329,3958.89285,N,11620.70571,E,1,31,,45.801,M,,M,,*41

[17:14:06.635]收←◆$GPGGA,091329,3958.89285,N,11620.70571,E,1,31,,45.801,M,,M,,*41

[17:14:07.664]收←◆$GPGGA,091329,3958.89285,N,11620.70571,E,1,31,,45.801,M,,M,,*41

[17:14:08.711]收←◆$GPGGA,091329,3958.89285,N,11620.70571,E,1,31,,45.801,M,,M,,*41

[17:14:09.697]收←◆$GPGGA,091329,3958.89285,N,11620.70571,E,1,31,,45.801,M,,M,,*41

[17:14:10.687]收←◆$GPGGA,091329,3958.89285,N,11620.70571,E,1,31,,45.801,M,,M,,*41

[17:14:11.701]收←◆$GPGGA,091329,3958.89285,N,11620.70571,E,1,31,,45.801,M,,M,,*41

[17:14:12.706]收←◆$GPGGA,091329,3958.89285,N,11620.70571,E,1,31,,45.801,M,,M,,*41

[17:14:13.698]收←◆$GPGGA,091329,3958.89285,N,11620.70571,E,1,31,,45.801,M,,M,,*41

[17:14:14.667]收←◆$GPGGA,091329,3958.89285,N,11620.70571,E,1,31,,45.801,M,,M,,*41

[17:14:15.658]收←◆$GPGGA,091329,3958.89285,N,11620.70571,E,1,31,,45.801,M,,M,,*41

[17:14:16.671]收←◆$GPGGA,091329,3958.89285,N,11620.70571,E,1,31,,45.801,M,,M,,*41

[17:14:17.656]收←◆$GPGGA,091329,3958.89285,N,11620.70571,E,1,31,,45.801,M,,M,,*41

[17:14:18.714]收←◆$GPGGA,091329,3958.89285,N,11620.70571,E,1,31,,45.801,M,,M,,*41

[17:14:19.705]收←◆$GPGGA,091329,3958.89285,N,11620.70571,E,1,31,,45.801,M,,M,,*41

[17:14:20.669]收←◆$GPGGA,091329,3958.89285,N,11620.70571,E,1,31,,45.801,M,,M,,*41

[17:14:21.679]收←◆$GPGGA,091329,3958.89285,N,11620.70571,E,1,31,,45.801,M,,M,,*41

[17:14:22.734]收←◆$GPGGA,091329,3958.89285,N,11620.70571,E,1,31,,45.801,M,,M,,*41

[17:14:23.725]收←◆$GPGGA,091329,3958.89285,N,11620.70571,E,1,31,,45.801,M,,M,,*41

[17:14:24.670]收←◆$GPGGA,091329,3958.89285,N,11620.70571,E,1,31,,45.801,M,,M,,*41

[17:14:25.728]收←◆$GPGGA,091329,3958.89285,N,11620.70571,E,1,31,,45.801,M,,M,,*41

[17:14:26.672]收←◆$GPGGA,091329,3958.89285,N,11620.70571,E,1,31,,45.801,M,,M,,*41

[17:14:27.729]收←◆$GPGGA,091329,3958.89285,N,11620.70571,E,1,31,,45.801,M,,M,,*41

[17:14:28.674]收←◆$GPGGA,091329,3958.89285,N,11620.70571,E,1,31,,45.801,M,,M,,*41

[17:14:29.689]收←◆$GPGGA,091329,3958.89285,N,11620.70571,E,1,31,,45.801,M,,M,,*41

[17:14:30.716]收←◆$GPGGA,091329,3958.89285,N,11620.70571,E,1,31,,45.801,M,,M,,*41

[17:14:31.692]收←◆$GPGGA,091329,3958.89285,N,11620.70571,E,1,31,,45.801,M,,M,,*41

[17:14:32.738]收←◆$GPGGA,091329,3958.89285,N,11620.70571,E,1,31,,45.801,M,,M,,*41

[17:14:33.757]收←◆$GPGGA,091329,3958.89285,N,11620.70571,E,1,31,,45.801,M,,M,,*41

[17:14:34.738]收←◆$GPGGA,091329,3958.89285,N,11620.70571,E,1,31,,45.801,M,,M,,*41

[17:14:35.681]收←◆$GPGGA,091329,3958.89285,N,11620.70571,E,1,31,,45.801,M,,M,,*41

[17:14:36.694]收←◆$GPGGA,091329,3958.89285,N,11620.70571,E,1,31,,45.801,M,,M,,*41

[17:14:37.699]收←◆$GPGGA,091329,3958.89285,N,11620.70571,E,1,31,,45.801,M,,M,,*41

[17:14:38.707]收←◆$GPGGA,091329,3958.89285,N,11620.70571,E,1,31,,45.801,M,,M,,*41

[17:14:39.708]收←◆$GPGGA,091329,3958.89285,N,11620.70571,E,1,31,,45.801,M,,M,,*41

[17:14:40.687]收←◆$GPGGA,091329,3958.89285,N,11620.70571,E,1,31,,45.801,M,,M,,*41

[17:14:41.735]收←◆$GPGGA,091329,3958.89285,N,11620.70571,E,1,31,,45.801,M,,M,,*41

[17:14:42.767]收←◆$GPGGA,091329,3958.89285,N,11620.70571,E,1,31,,45.801,M,,M,,*41

[17:14:43.705]收←◆$GPGGA,091329,3958.89285,N,11620.70571,E,1,31,,45.801,M,,M,,*41

[17:14:44.767]收←◆$GPGGA,091329,3958.89285,N,11620.70571,E,1,31,,45.801,M,,M,,*41

[17:14:45.744]收←◆$GPGGA,091329,3958.89285,N,11620.70571,E,1,31,,45.801,M,,M,,*41

[17:14:46.772]收←◆$GPGGA,091329,3958.89285,N,11620.70571,E,1,31,,45.801,M,,M,,*41

[17:14:47.767]收←◆$GPGGA,091329,3958.89285,N,11620.70571,E,1,31,,45.801,M,,M,,*41

[17:14:48.747]收←◆$GPGGA,091329,3958.89285,N,11620.70571,E,1,31,,45.801,M,,M,,*41

[17:14:49.724]收←◆$GPGGA,091329,3958.89285,N,11620.70571,E,1,31,,45.801,M,,M,,*41

[17:14:50.772]收←◆$GPGGA,091329,3958.89285,N,11620.70571,E,1,31,,45.801,M,,M,,*41

[17:14:51.752]收←◆$GPGGA,091329,3958.89285,N,11620.70571,E,1,31,,45.801,M,,M,,*41

[17:14:52.768]收←◆$GPGGA,091329,3958.89285,N,11620.70571,E,1,31,,45.801,M,,M,,*41

[17:14:53.762]收←◆$GPGGA,091329,3958.89285,N,11620.70571,E,1,31,,45.801,M,,M,,*41

[17:14:54.778]收←◆$GPGGA,091329,3958.89285,N,11620.70571,E,1,31,,45.801,M,,M,,*41

[17:14:55.718]收←◆$GPGGA,091329,3958.89285,N,11620.70571,E,1,31,,45.801,M,,M,,*41

[17:14:56.770]收←◆$GPGGA,091329,3958.89285,N,11620.70571,E,1,31,,45.801,M,,M,,*41

[17:14:57.729]收←◆$GPGGA,091329,3958.89285,N,11620.70571,E,1,31,,45.801,M,,M,,*41

[17:14:58.772]收←◆$GPGGA,091329,3958.89285,N,11620.70571,E,1,31,,45.801,M,,M,,*41

[17:14:59.771]收←◆$GPGGA,091329,3958.89285,N,11620.70571,E,1,31,,45.801,M,,M,,*41

[17:15:00.728]收←◆$GPGGA,091329,3958.89285,N,11620.70571,E,1,31,,45.801,M,,M,,*41

[17:15:01.773]收←◆$GPGGA,091329,3958.89285,N,11620.70571,E,1,31,,45.801,M,,M,,*41

[17:15:02.736]收←◆$GPGGA,091329,3958.89285,N,11620.70571,E,1,31,,45.801,M,,M,,*41

[17:15:03.778]收←◆$GPGGA,091329,3958.89285,N,11620.70571,E,1,31,,45.801,M,,M,,*41

[17:15:04.757]收←◆$GPGGA,091329,3958.89285,N,11620.70571,E,1,31,,45.801,M,,M,,*41

[17:15:05.735]收←◆$GPGGA,091329,3958.89285,N,11620.70571,E,1,31,,45.801,M,,M,,*41

[17:15:06.783]收←◆$GPGGA,091329,3958.89285,N,11620.70571,E,1,31,,45.801,M,,M,,*41

[17:15:07.790]收←◆$GPGGA,091329,3958.89285,N,11620.70571,E,1,31,,45.801,M,,M,,*41

[17:15:08.746]收←◆$GPGGA,091329,3958.89285,N,11620.70571,E,1,31,,45.801,M,,M,,*41

[17:15:09.756]收←◆$GPGGA,091329,3958.89285,N,11620.70571,E,1,31,,45.801,M,,M,,*41

[17:15:10.756]收←◆$GPGGA,091329,3958.89285,N,11620.70571,E,1,31,,45.801,M,,M,,*41

[17:15:11.791]收←◆$GPGGA,091329,3958.89285,N,11620.70571,E,1,31,,45.801,M,,M,,*41

[17:15:12.805]收←◆$GPGGA,091329,3958.89285,N,11620.70571,E,1,31,,45.801,M,,M,,*41

[17:15:13.748]收←◆$GPGGA,091329,3958.89285,N,11620.70571,E,1,31,,45.801,M,,M,,*41

[17:15:14.819]收←◆$GPGGA,091329,3958.89285,N,11620.70571,E,1,31,,45.801,M,,M,,*41

[17:15:15.788]收←◆$GPGGA,091329,3958.89285,N,11620.70571,E,1,31,,45.801,M,,M,,*41

[17:15:16.766]收←◆$GPGGA,091329,3958.89285,N,11620.70571,E,1,31,,45.801,M,,M,,*41

[17:15:17.760]收←◆$GPGGA,091329,3958.89285,N,11620.70571,E,1,31,,45.801,M,,M,,*41
