
[17:19:31.228]收←◆$GPGGA,091925,3958.89176,N,11620.7987,E,1,29,,22.980,M,,M,,*7D

[17:19:32.239]收←◆$GPGGA,091925,3958.89176,N,11620.7987,E,1,29,,22.980,M,,M,,*7D

[17:19:33.223]收←◆$GPGGA,091925,3958.89176,N,11620.7987,E,1,29,,22.980,M,,M,,*7D

[17:19:34.236]收←◆$GPGGA,091925,3958.89176,N,11620.7987,E,1,29,,22.980,M,,M,,*7D

[17:19:35.254]收←◆$GPGGA,091925,3958.89176,N,11620.7987,E,1,29,,22.980,M,,M,,*7D

[17:19:36.193]收←◆$GPGGA,091925,3958.89176,N,11620.7987,E,1,29,,22.980,M,,M,,*7D

[17:19:37.239]收←◆$GPGGA,091925,3958.89176,N,11620.7987,E,1,29,,22.980,M,,M,,*7D

[17:19:38.244]收←◆$GPGGA,091925,3958.89176,N,11620.7987,E,1,29,,22.980,M,,M,,*7D

[17:19:39.258]收←◆$GPGGA,091925,3958.89176,N,11620.7987,E,1,29,,22.980,M,,M,,*7D

[17:19:40.210]收←◆$GPGGA,091925,3958.89176,N,11620.7987,E,1,29,,22.980,M,,M,,*7D

[17:19:41.275]收←◆$GPGGA,091925,3958.89176,N,11620.7987,E,1,29,,22.980,M,,M,,*7D

[17:19:42.248]收←◆$GPGGA,091925,3958.89176,N,11620.7987,E,1,29,,22.980,M,,M,,*7D

[17:19:43.282]收←◆$GPGGA,091925,3958.89176,N,11620.7987,E,1,29,,22.980,M,,M,,*7D

[17:19:44.235]收←◆$GPGGA,091925,3958.89176,N,11620.7987,E,1,29,,22.980,M,,M,,*7D

[17:19:45.262]收←◆$GPGGA,091944,3958.88507,N,11620.79885,E,1,28,,23.494,M,,M,,*4B

[17:19:46.273]收←◆$GPGGA,091945,3958.88582,N,11620.7975,E,1,31,,21.522,M,,M,,*76

[17:19:47.286]收←◆$GPGGA,091946,3958.88516,N,11620.79887,E,1,31,,24.315,M,,M,,*4A

[17:19:48.226]收←◆$GPGGA,091948,3958.8817,N,11620.79815,E,1,31,,27.701,M,,M,,*79

[17:19:49.248]收←◆$GPGGA,091949,3958.8801,N,11620.79984,E,1,31,,49.950,M,,M,,*74

[17:19:50.285]收←◆$GPGGA,091950,3958.88084,N,11620.79926,E,1,31,,44.708,M,,M,,*47

[17:19:51.246]收←◆$GPGGA,091951,3958.87986,N,11620.79894,E,1,31,,43.433,M,,M,,*46

[17:19:52.231]收←◆$GPGGA,091952,3958.8793,N,11620.79931,E,1,31,,42.359,M,,M,,*7C

[17:19:53.285]收←◆$GPGGA,091953,3958.87887,N,11620.79953,E,1,31,,40.634,M,,M,,*48

[17:19:54.280]收←◆$GPGGA,091954,3958.87843,N,11620.79965,E,1,31,,39.848,M,,M,,*49

[17:19:55.303]收←◆$GPGGA,091955,3958.87797,N,11620.79966,E,1,31,,39.153,M,,M,,*4E

[17:19:56.295]收←◆$GPGGA,091956,3958.877,N,11620.79937,E,1,31,,38.447,M,,M,,*46

[17:19:57.240]收←◆$GPGGA,091957,3958.87642,N,11620.79951,E,1,31,,38.263,M,,M,,*40

[17:19:58.304]收←◆$GPGGA,091958,3958.87577,N,11620.79954,E,1,34,,37.575,M,,M,,*45

[17:19:59.285]收←◆$GPGGA,091959,3958.87552,N,11620.79956,E,1,34,,36.433,M,,M,,*43

[17:20:00.295]收←◆$GPGGA,092000,3958.87496,N,11620.7996,E,1,35,,34.964,M,,M,,*75

[17:20:01.284]收←◆$GPGGA,092001,3958.8739,N,11620.79974,E,1,35,,34.457,M,,M,,*7D

[17:20:02.305]收←◆$GPGGA,092002,3958.87269,N,11620.79974,E,1,35,,34.254,M,,M,,*4C

[17:20:03.285]收←◆$GPGGA,092003,3958.87171,N,11620.79955,E,1,35,,34.325,M,,M,,*43

[17:20:04.307]收←◆$GPGGA,092004,3958.86909,N,11620.79927,E,1,35,,37.057,M,,M,,*42

[17:20:05.291]收←◆$GPGGA,092005,3958.86836,N,11620.79907,E,1,35,,36.706,M,,M,,*4E

[17:20:06.312]收←◆$GPGGA,092006,3958.86771,N,11620.79878,E,1,34,,36.329,M,,M,,*40

[17:20:07.316]收←◆$GPGGA,092007,3958.86693,N,11620.79845,E,1,34,,35.774,M,,M,,*4D

[17:20:08.270]收←◆$GPGGA,092008,3958.86639,N,11620.79823,E,1,34,,34.653,M,,M,,*47

[17:20:09.259]收←◆$GPGGA,092009,3958.86665,N,11620.79766,E,1,34,,30.813,M,,M,,*4F

[17:20:10.256]收←◆$GPGGA,092010,3958.86586,N,11620.79748,E,1,34,,29.423,M,,M,,*42

[17:20:11.327]收←◆$GPGGA,092011,3958.86404,N,11620.7976,E,1,33,,30.699,M,,M,,*7E

[17:20:12.312]收←◆$GPGGA,092012,3958.86272,N,11620.79837,E,1,33,,33.346,M,,M,,*43

[17:20:13.306]收←◆$GPGGA,092013,3958.8621,N,11620.79944,E,1,33,,33.769,M,,M,,*7A

[17:20:14.312]收←◆$GPGGA,092014,3958.86163,N,11620.80047,E,1,33,,33.624,M,,M,,*4E

[17:20:15.280]收←◆$GPGGA,092015,3958.86115,N,11620.8014,E,1,33,,33.003,M,,M,,*7B

[17:20:16.322]收←◆$GPGGA,092016,3958.86035,N,11620.80111,E,1,34,,31.539,M,,M,,*46

[17:20:17.272]收←◆$GPGGA,092017,3958.85934,N,11620.80131,E,1,34,,31.198,M,,M,,*41

[17:20:18.343]收←◆$GPGGA,092018,3958.85834,N,11620.80165,E,1,34,,31.292,M,,M,,*47

[17:20:19.290]收←◆$GPGGA,092019,3958.85733,N,11620.80147,E,1,34,,30.864,M,,M,,*4C

[17:20:20.270]收←◆$GPGGA,092020,3958.85563,N,11620.80061,E,1,35,,31.523,M,,M,,*4A

[17:20:21.276]收←◆$GPGGA,092020,3958.85563,N,11620.80061,E,1,35,,31.523,M,,M,,*4A

[17:20:22.331]收←◆$GPGGA,092022,3958.85253,N,11620.80011,E,1,35,,33.221,M,,M,,*4C

[17:20:23.311]收←◆$GPGGA,092023,3958.85126,N,11620.80131,E,1,35,,33.358,M,,M,,*40

[17:20:24.331]收←◆$GPGGA,092024,3958.85024,N,11620.80208,E,1,35,,33.162,M,,M,,*46

[17:20:25.350]收←◆$GPGGA,092025,3958.84929,N,11620.80267,E,1,34,,33.306,M,,M,,*4A

[17:20:26.321]收←◆$GPGGA,092026,3958.84841,N,11620.80268,E,1,33,,32.921,M,,M,,*40

[17:20:27.289]收←◆$GPGGA,092027,3958.8478,N,11620.80249,E,1,33,,32.803,M,,M,,*71

[17:20:28.346]收←◆$GPGGA,092028,3958.8472,N,11620.80236,E,1,33,,32.746,M,,M,,*72

[17:20:29.324]收←◆$GPGGA,092029,3958.84643,N,11620.80214,E,1,33,,32.761,M,,M,,*42

[17:20:30.294]收←◆$GPGGA,092030,3958.84568,N,11620.80195,E,1,33,,32.728,M,,M,,*47

[17:20:31.331]收←◆$GPGGA,092031,3958.84507,N,11620.80177,E,1,33,,32.768,M,,M,,*47

[17:20:32.340]收←◆$GPGGA,092032,3958.84462,N,11620.80163,E,1,33,,32.731,M,,M,,*4F

[17:20:33.289]收←◆$GPGGA,092033,3958.84409,N,11620.80162,E,1,33,,32.666,M,,M,,*41

[17:20:34.337]收←◆$GPGGA,092034,3958.84353,N,11620.80171,E,1,33,,32.662,M,,M,,*48

[17:20:35.347]收←◆$GPGGA,092035,3958.84298,N,11620.80176,E,1,33,,32.595,M,,M,,*43

[17:20:36.355]收←◆$GPGGA,092036,3958.84243,N,11620.80168,E,1,33,,32.700,M,,M,,*47

[17:20:37.341]收←◆$GPGGA,092037,3958.84183,N,11620.80153,E,1,33,,32.877,M,,M,,*4E

[17:20:38.297]收←◆$GPGGA,092038,3958.84127,N,11620.80149,E,1,33,,33.009,M,,M,,*44

[17:20:39.307]收←◆$GPGGA,092038,3958.84127,N,11620.80149,E,1,33,,33.009,M,,M,,*44

[17:20:40.369]收←◆$GPGGA,092040,3958.84013,N,11620.80154,E,1,33,,35.502,M,,M,,*49

[17:20:41.346]收←◆$GPGGA,092041,3958.83924,N,11620.80211,E,1,33,,37.429,M,,M,,*4A

[17:20:42.341]收←◆$GPGGA,092042,3958.83854,N,11620.80221,E,1,33,,39.010,M,,M,,*4C

[17:20:43.358]收←◆$GPGGA,092043,3958.83781,N,11620.80215,E,1,33,,39.278,M,,M,,*41

[17:20:44.359]收←◆$GPGGA,092044,3958.83709,N,11620.8019,E,1,33,,39.458,M,,M,,*7C

[17:20:45.314]收←◆$GPGGA,092045,3958.83655,N,11620.80186,E,1,33,,39.686,M,,M,,*43

[17:20:46.349]收←◆$GPGGA,092046,3958.83586,N,11620.80186,E,1,34,,39.974,M,,M,,*48

[17:20:47.374]收←◆$GPGGA,092047,3958.83513,N,11620.80201,E,1,34,,40.282,M,,M,,*45

[17:20:48.369]收←◆$GPGGA,092048,3958.83452,N,11620.80228,E,1,34,,40.269,M,,M,,*40

[17:20:49.363]收←◆$GPGGA,092049,3958.83353,N,11620.80211,E,1,35,,40.302,M,,M,,*40

[17:20:50.354]收←◆$GPGGA,092050,3958.83276,N,11620.80207,E,1,36,,40.306,M,,M,,*4E

[17:20:51.333]收←◆$GPGGA,092051,3958.83206,N,11620.80207,E,1,36,,40.382,M,,M,,*44

[17:20:52.362]收←◆$GPGGA,092052,3958.83124,N,11620.8019,E,1,36,,40.271,M,,M,,*74

[17:20:53.367]收←◆$GPGGA,092053,3958.83046,N,11620.80191,E,1,36,,40.322,M,,M,,*46

[17:20:54.368]收←◆$GPGGA,092054,3958.8296,N,11620.80203,E,1,36,,40.433,M,,M,,*72

[17:20:55.373]收←◆$GPGGA,092055,3958.82873,N,11620.80207,E,1,36,,40.484,M,,M,,*48

[17:20:56.381]收←◆$GPGGA,092056,3958.82802,N,11620.80191,E,1,36,,40.353,M,,M,,*4C

[17:20:57.336]收←◆$GPGGA,092056,3958.82802,N,11620.80191,E,1,36,,40.353,M,,M,,*4C

[17:20:58.367]收←◆$GPGGA,092058,3958.8268,N,11620.80175,E,1,35,,39.864,M,,M,,*7E

[17:20:59.376]收←◆$GPGGA,092059,3958.82612,N,11620.80174,E,1,33,,39.632,M,,M,,*4E

[17:21:00.332]收←◆$GPGGA,092100,3958.82546,N,11620.80177,E,1,34,,39.477,M,,M,,*46

[17:21:01.373]收←◆$GPGGA,092101,3958.8247,N,11620.80166,E,1,34,,39.426,M,,M,,*77

[17:21:02.392]收←◆$GPGGA,092102,3958.82403,N,11620.80172,E,1,34,,39.388,M,,M,,*46

[17:21:03.398]收←◆$GPGGA,092103,3958.82349,N,11620.8017,E,1,34,,39.487,M,,M,,*74

[17:21:04.333]收←◆$GPGGA,092104,3958.82293,N,11620.80151,E,1,34,,39.456,M,,M,,*4A

[17:21:05.392]收←◆$GPGGA,092105,3958.82233,N,11620.8014,E,1,34,,39.296,M,,M,,*7B

[17:21:06.357]收←◆$GPGGA,092106,3958.82179,N,11620.80138,E,1,34,,39.031,M,,M,,*45
