
[18:02:44.138]收←◆$GPGGA,100234,3958.9179,N,11620.54174,E,1,32,,43.829,M,,M,,*75

[18:02:45.094]收←◆$GPGGA,100234,3958.9179,N,11620.54174,E,1,32,,43.829,M,,M,,*75

[18:02:46.156]收←◆$GPGGA,100234,3958.9179,N,11620.54174,E,1,32,,43.829,M,,M,,*75

[18:02:47.150]收←◆$GPGGA,100234,3958.9179,N,11620.54174,E,1,32,,43.829,M,,M,,*75

[18:02:48.115]收←◆$GPGGA,100234,3958.9179,N,11620.54174,E,1,32,,43.829,M,,M,,*75

[18:02:49.116]收←◆$GPGGA,100234,3958.9179,N,11620.54174,E,1,32,,43.829,M,,M,,*75

[18:02:50.164]收←◆$GPGGA,100234,3958.9179,N,11620.54174,E,1,32,,43.829,M,,M,,*75

[18:02:51.145]收←◆$GPGGA,100234,3958.9179,N,11620.54174,E,1,32,,43.829,M,,M,,*75

[18:02:52.181]收←◆$GPGGA,100234,3958.9179,N,11620.54174,E,1,32,,43.829,M,,M,,*75

[18:02:53.103]收←◆$GPGGA,100234,3958.9179,N,11620.54174,E,1,32,,43.829,M,,M,,*75

[18:02:54.114]收←◆$GPGGA,100234,3958.9179,N,11620.54174,E,1,32,,43.829,M,,M,,*75

[18:02:55.163]收←◆$GPGGA,100234,3958.9179,N,11620.54174,E,1,32,,43.829,M,,M,,*75

[18:02:56.158]收←◆$GPGGA,100234,3958.9179,N,11620.54174,E,1,32,,43.829,M,,M,,*75

[18:02:57.117]收←◆$GPGGA,100234,3958.9179,N,11620.54174,E,1,32,,43.829,M,,M,,*75

[18:02:58.170]收←◆$GPGGA,100234,3958.9179,N,11620.54174,E,1,32,,43.829,M,,M,,*75

[18:02:59.118]收←◆$GPGGA,100234,3958.9179,N,11620.54174,E,1,32,,43.829,M,,M,,*75

[18:03:00.135]收←◆$GPGGA,100234,3958.9179,N,11620.54174,E,1,32,,43.829,M,,M,,*75

[18:03:01.120]收←◆$GPGGA,100234,3958.9179,N,11620.54174,E,1,32,,43.829,M,,M,,*75

[18:03:02.170]收←◆$GPGGA,100234,3958.9179,N,11620.54174,E,1,32,,43.829,M,,M,,*75

[18:03:03.129]收←◆$GPGGA,100234,3958.9179,N,11620.54174,E,1,32,,43.829,M,,M,,*75

[18:03:04.128]收←◆$GPGGA,100234,3958.9179,N,11620.54174,E,1,32,,43.829,M,,M,,*75

[18:03:05.191]收←◆$GPGGA,100234,3958.9179,N,11620.54174,E,1,32,,43.829,M,,M,,*75

[18:03:06.171]收←◆$GPGGA,100234,3958.9179,N,11620.54174,E,1,32,,43.829,M,,M,,*75

[18:03:07.171]收←◆$GPGGA,100234,3958.9179,N,11620.54174,E,1,32,,43.829,M,,M,,*75

[18:03:08.187]收←◆$GPGGA,100234,3958.9179,N,11620.54174,E,1,32,,43.829,M,,M,,*75

[18:03:09.143]收←◆$GPGGA,100234,3958.9179,N,11620.54174,E,1,32,,43.829,M,,M,,*75

[18:03:10.174]收←◆$GPGGA,100234,3958.9179,N,11620.54174,E,1,32,,43.829,M,,M,,*75

[18:03:11.240]收←◆$GPGGA,100234,3958.9179,N,11620.54174,E,1,32,,43.829,M,,M,,*75

[18:03:12.193]收←◆$GPGGA,100234,3958.9179,N,11620.54174,E,1,32,,43.829,M,,M,,*75

[18:03:13.179]收←◆$GPGGA,100234,3958.9179,N,11620.54174,E,1,32,,43.829,M,,M,,*75

[18:03:14.180]收←◆$GPGGA,100234,3958.9179,N,11620.54174,E,1,32,,43.829,M,,M,,*75

[18:03:15.181]收←◆$GPGGA,100234,3958.9179,N,11620.54174,E,1,32,,43.829,M,,M,,*75

[18:03:16.208]收←◆$GPGGA,100234,3958.9179,N,11620.54174,E,1,32,,43.829,M,,M,,*75

[18:03:17.151]收←◆$GPGGA,100234,3958.9179,N,11620.54174,E,1,32,,43.829,M,,M,,*75

[18:03:18.210]收←◆$GPGGA,100234,3958.9179,N,11620.54174,E,1,32,,43.829,M,,M,,*75

[18:03:19.195]收←◆$GPGGA,100234,3958.9179,N,11620.54174,E,1,32,,43.829,M,,M,,*75

[18:03:20.204]收←◆$GPGGA,100234,3958.9179,N,11620.54174,E,1,32,,43.829,M,,M,,*75

[18:03:21.217]收←◆$GPGGA,100234,3958.9179,N,11620.54174,E,1,32,,43.829,M,,M,,*75

[18:03:22.194]收←◆$GPGGA,100234,3958.9179,N,11620.54174,E,1,32,,43.829,M,,M,,*75

[18:03:23.196]收←◆$GPGGA,100234,3958.9179,N,11620.54174,E,1,32,,43.829,M,,M,,*75

[18:03:24.198]收←◆$GPGGA,100234,3958.9179,N,11620.54174,E,1,32,,43.829,M,,M,,*75

[18:03:25.200]收←◆$GPGGA,100234,3958.9179,N,11620.54174,E,1,32,,43.829,M,,M,,*75

[18:03:26.178]收←◆$GPGGA,100234,3958.9179,N,11620.54174,E,1,32,,43.829,M,,M,,*75

[18:03:27.225]收←◆$GPGGA,100234,3958.9179,N,11620.54174,E,1,32,,43.829,M,,M,,*75

[18:03:28.163]收←◆$GPGGA,100234,3958.9179,N,11620.54174,E,1,32,,43.829,M,,M,,*75

[18:03:29.191]收←◆$GPGGA,100234,3958.9179,N,11620.54174,E,1,32,,43.829,M,,M,,*75

[18:03:30.237]收←◆$GPGGA,100234,3958.9179,N,11620.54174,E,1,32,,43.829,M,,M,,*75

[18:03:31.221]收←◆$GPGGA,100234,3958.9179,N,11620.54174,E,1,32,,43.829,M,,M,,*75

[18:03:32.177]收←◆$GPGGA,100234,3958.9179,N,11620.54174,E,1,32,,43.829,M,,M,,*75

[18:03:33.211]收←◆$GPGGA,100234,3958.9179,N,11620.54174,E,1,32,,43.829,M,,M,,*75

[18:03:34.216]收←◆$GPGGA,100234,3958.9179,N,11620.54174,E,1,32,,43.829,M,,M,,*75

[18:03:35.227]收←◆$GPGGA,100234,3958.9179,N,11620.54174,E,1,32,,43.829,M,,M,,*75

[18:03:36.194]收←◆$GPGGA,100234,3958.9179,N,11620.54174,E,1,32,,43.829,M,,M,,*75

[18:03:37.251]收←◆$GPGGA,100234,3958.9179,N,11620.54174,E,1,32,,43.829,M,,M,,*75

[18:03:38.189]收←◆$GPGGA,100234,3958.9179,N,11620.54174,E,1,32,,43.829,M,,M,,*75

[18:03:39.240]收←◆$GPGGA,100234,3958.9179,N,11620.54174,E,1,32,,43.829,M,,M,,*75

[18:03:40.227]收←◆$GPGGA,100234,3958.9179,N,11620.54174,E,1,32,,43.829,M,,M,,*75

[18:03:41.189]收←◆$GPGGA,100234,3958.9179,N,11620.54174,E,1,32,,43.829,M,,M,,*75

[18:03:42.185]收←◆$GPGGA,100234,3958.9179,N,11620.54174,E,1,32,,43.829,M,,M,,*75

[18:03:43.196]收←◆$GPGGA,100234,3958.9179,N,11620.54174,E,1,32,,43.829,M,,M,,*75

[18:03:44.246]收←◆$GPGGA,100234,3958.9179,N,11620.54174,E,1,32,,43.829,M,,M,,*75

[18:03:45.231]收←◆$GPGGA,100234,3958.9179,N,11620.54174,E,1,32,,43.829,M,,M,,*75

[18:03:46.229]收←◆$GPGGA,100234,3958.9179,N,11620.54174,E,1,32,,43.829,M,,M,,*75

[18:03:47.257]收←◆$GPGGA,100234,3958.9179,N,11620.54174,E,1,32,,43.829,M,,M,,*75

[18:03:48.262]收←◆$GPGGA,100234,3958.9179,N,11620.54174,E,1,32,,43.829,M,,M,,*75

[18:03:49.195]收←◆$GPGGA,100234,3958.9179,N,11620.54174,E,1,32,,43.829,M,,M,,*75

[18:03:50.199]收←◆$GPGGA,100234,3958.9179,N,11620.54174,E,1,32,,43.829,M,,M,,*75

[18:03:51.211]收←◆$GPGGA,100234,3958.9179,N,11620.54174,E,1,32,,43.829,M,,M,,*75

[18:03:52.253]收←◆$GPGGA,100234,3958.9179,N,11620.54174,E,1,32,,43.829,M,,M,,*75

[18:03:53.214]收←◆$GPGGA,100234,3958.9179,N,11620.54174,E,1,32,,43.829,M,,M,,*75

[18:03:54.211]收←◆$GPGGA,100234,3958.9179,N,11620.54174,E,1,32,,43.829,M,,M,,*75

[18:03:55.205]收←◆$GPGGA,100234,3958.9179,N,11620.54174,E,1,32,,43.829,M,,M,,*75

[18:03:56.270]收←◆$GPGGA,100234,3958.9179,N,11620.54174,E,1,32,,43.829,M,,M,,*75

[18:03:57.263]收←◆$GPGGA,100234,3958.9179,N,11620.54174,E,1,32,,43.829,M,,M,,*75

[18:03:58.251]收←◆$GPGGA,100234,3958.9179,N,11620.54174,E,1,32,,43.829,M,,M,,*75

[18:03:59.262]收←◆$GPGGA,100234,3958.9179,N,11620.54174,E,1,32,,43.829,M,,M,,*75

[18:04:00.275]收←◆$GPGGA,100234,3958.9179,N,11620.54174,E,1,32,,43.829,M,,M,,*75

[18:04:01.233]收←◆$GPGGA,100234,3958.9179,N,11620.54174,E,1,32,,43.829,M,,M,,*75

[18:04:02.273]收←◆$GPGGA,100234,3958.9179,N,11620.54174,E,1,32,,43.829,M,,M,,*75

[18:04:03.269]收←◆$GPGGA,100234,3958.9179,N,11620.54174,E,1,32,,43.829,M,,M,,*75

[18:04:04.275]收←◆$GPGGA,100234,3958.9179,N,11620.54174,E,1,32,,43.829,M,,M,,*75

[18:04:05.262]收←◆$GPGGA,100234,3958.9179,N,11620.54174,E,1,32,,43.829,M,,M,,*75

[18:04:06.223]收←◆$GPGGA,100234,3958.9179,N,11620.54174,E,1,32,,43.829,M,,M,,*75

[18:04:07.265]收←◆$GPGGA,100234,3958.9179,N,11620.54174,E,1,32,,43.829,M,,M,,*75

[18:04:08.246]收←◆$GPGGA,100234,3958.9179,N,11620.54174,E,1,32,,43.829,M,,M,,*75

[18:04:09.279]收←◆$GPGGA,100234,3958.9179,N,11620.54174,E,1,32,,43.829,M,,M,,*75

[18:04:10.221]收←◆$GPGGA,100410,3958.86641,N,11620.52988,E,1,32,,42.730,M,,M,,*45
