
[17:05:05.730]收←◆$GPGGA,090505,3958.84104,N,11620.74747,E,1,29,,40.836,M,,M,,*44

[17:05:06.687]收←◆$GPGGA,090505,3958.84104,N,11620.74747,E,1,29,,40.836,M,,M,,*44

[17:05:07.758]收←◆$GPGGA,090505,3958.84104,N,11620.74747,E,1,29,,40.836,M,,M,,*44

[17:05:08.738]收←◆$GPGGA,090505,3958.84104,N,11620.74747,E,1,29,,40.836,M,,M,,*44

[17:05:09.704]收←◆$GPGGA,090505,3958.84104,N,11620.74747,E,1,29,,40.836,M,,M,,*44

[17:05:10.753]收←◆$GPGGA,090505,3958.84104,N,11620.74747,E,1,29,,40.836,M,,M,,*44

[17:05:11.774]收←◆$GPGGA,090505,3958.84104,N,11620.74747,E,1,29,,40.836,M,,M,,*44

[17:05:12.726]收←◆$GPGGA,090505,3958.84104,N,11620.74747,E,1,29,,40.836,M,,M,,*44

[17:05:13.756]收←◆$GPGGA,090505,3958.84104,N,11620.74747,E,1,29,,40.836,M,,M,,*44

[17:05:14.716]收←◆$GPGGA,090505,3958.84104,N,11620.74747,E,1,29,,40.836,M,,M,,*44

[17:05:15.794]收←◆$GPGGA,090505,3958.84104,N,11620.74747,E,1,29,,40.836,M,,M,,*44

[17:05:16.732]收←◆$GPGGA,090505,3958.84104,N,11620.74747,E,1,29,,40.836,M,,M,,*44

[17:05:17.760]收←◆$GPGGA,090505,3958.84104,N,11620.74747,E,1,29,,40.836,M,,M,,*44

[17:05:18.724]收←◆$GPGGA,090505,3958.84104,N,11620.74747,E,1,29,,40.836,M,,M,,*44

[17:05:19.771]收←◆$GPGGA,090505,3958.84104,N,11620.74747,E,1,29,,40.836,M,,M,,*44

[17:05:20.780]收←◆$GPGGA,090505,3958.84104,N,11620.74747,E,1,29,,40.836,M,,M,,*44

[17:05:21.778]收←◆$GPGGA,090505,3958.84104,N,11620.74747,E,1,29,,40.836,M,,M,,*44

[17:05:22.785]收←◆$GPGGA,090505,3958.84104,N,11620.74747,E,1,29,,40.836,M,,M,,*44

[17:05:23.735]收←◆$GPGGA,090505,3958.84104,N,11620.74747,E,1,29,,40.836,M,,M,,*44

[17:05:24.794]收←◆$GPGGA,090505,3958.84104,N,11620.74747,E,1,29,,40.836,M,,M,,*44

[17:05:25.780]收←◆$GPGGA,090505,3958.84104,N,11620.74747,E,1,29,,40.836,M,,M,,*44

[17:05:26.739]收←◆$GPGGA,090505,3958.84104,N,11620.74747,E,1,29,,40.836,M,,M,,*44

[17:05:27.778]收←◆$GPGGA,090505,3958.84104,N,11620.74747,E,1,29,,40.836,M,,M,,*44

[17:05:28.749]收←◆$GPGGA,090505,3958.84104,N,11620.74747,E,1,29,,40.836,M,,M,,*44

[17:05:29.760]收←◆$GPGGA,090505,3958.84104,N,11620.74747,E,1,29,,40.836,M,,M,,*44

[17:05:30.775]收←◆$GPGGA,090505,3958.84104,N,11620.74747,E,1,29,,40.836,M,,M,,*44

[17:05:31.810]收←◆$GPGGA,090505,3958.84104,N,11620.74747,E,1,29,,40.836,M,,M,,*44

[17:05:32.790]收←◆$GPGGA,090505,3958.84104,N,11620.74747,E,1,29,,40.836,M,,M,,*44

[17:05:33.771]收←◆$GPGGA,090505,3958.84104,N,11620.74747,E,1,29,,40.836,M,,M,,*44

[17:05:34.796]收←◆$GPGGA,090505,3958.84104,N,11620.74747,E,1,29,,40.836,M,,M,,*44

[17:05:35.777]收←◆$GPGGA,090505,3958.84104,N,11620.74747,E,1,29,,40.836,M,,M,,*44

[17:05:36.843]收←◆$GPGGA,090505,3958.84104,N,11620.74747,E,1,29,,40.836,M,,M,,*44

[17:05:37.827]收←◆$GPGGA,090505,3958.84104,N,11620.74747,E,1,29,,40.836,M,,M,,*44

[17:05:38.773]收←◆$GPGGA,090505,3958.84104,N,11620.74747,E,1,29,,40.836,M,,M,,*44

[17:05:39.775]收←◆$GPGGA,090505,3958.84104,N,11620.74747,E,1,29,,40.836,M,,M,,*44

[17:05:40.810]收←◆$GPGGA,090505,3958.84104,N,11620.74747,E,1,29,,40.836,M,,M,,*44

[17:05:41.822]收←◆$GPGGA,090505,3958.84104,N,11620.74747,E,1,29,,40.836,M,,M,,*44

[17:05:42.828]收←◆$GPGGA,090505,3958.84104,N,11620.74747,E,1,29,,40.836,M,,M,,*44

[17:05:43.841]收←◆$GPGGA,090505,3958.84104,N,11620.74747,E,1,29,,40.836,M,,M,,*44

[17:05:44.833]收←◆$GPGGA,090505,3958.84104,N,11620.74747,E,1,29,,40.836,M,,M,,*44

[17:05:45.792]收←◆$GPGGA,090505,3958.84104,N,11620.74747,E,1,29,,40.836,M,,M,,*44

[17:05:46.869]收←◆$GPGGA,090505,3958.84104,N,11620.74747,E,1,29,,40.836,M,,M,,*44

[17:05:47.787]收←◆$GPGGA,090505,3958.84104,N,11620.74747,E,1,29,,40.836,M,,M,,*44

[17:05:48.844]收←◆$GPGGA,090505,3958.84104,N,11620.74747,E,1,29,,40.836,M,,M,,*44

[17:05:49.832]收←◆$GPGGA,090505,3958.84104,N,11620.74747,E,1,29,,40.836,M,,M,,*44

[17:05:50.854]收←◆$GPGGA,090505,3958.84104,N,11620.74747,E,1,29,,40.836,M,,M,,*44

[17:05:51.846]收←◆$GPGGA,090505,3958.84104,N,11620.74747,E,1,29,,40.836,M,,M,,*44

[17:05:52.812]收←◆$GPGGA,090505,3958.84104,N,11620.74747,E,1,0,,40.836,M,,M,,*7F

[17:05:53.836]收←◆$GPGGA,090505,3958.84104,N,11620.74747,E,1,0,,40.836,M,,M,,*7F

[17:05:54.848]收←◆$GPGGA,090553,3958.87355,N,11620.7506,E,1,28,,36.689,M,,M,,*7B

[17:05:55.819]收←◆$GPGGA,090554,3958.87598,N,11620.7493,E,1,28,,35.313,M,,M,,*73

[17:05:56.844]收←◆$GPGGA,090556,3958.87454,N,11620.75171,E,1,29,,44.243,M,,M,,*4F

[17:05:57.847]收←◆$GPGGA,090557,3958.87696,N,11620.75172,E,1,29,,49.166,M,,M,,*48

[17:05:58.857]收←◆$GPGGA,090558,3958.87665,N,11620.74773,E,1,29,,47.016,M,,M,,*45

[17:05:59.852]收←◆$GPGGA,090558,3958.87665,N,11620.74773,E,1,29,,47.016,M,,M,,*45

[17:06:00.827]收←◆$GPGGA,090558,3958.87665,N,11620.74773,E,1,29,,47.016,M,,M,,*45

[17:06:01.807]收←◆$GPGGA,090558,3958.87665,N,11620.74773,E,1,29,,47.016,M,,M,,*45

[17:06:02.860]收←◆$GPGGA,090558,3958.87665,N,11620.74773,E,1,29,,47.016,M,,M,,*45

[17:06:03.816]收←◆$GPGGA,090558,3958.87665,N,11620.74773,E,1,29,,47.016,M,,M,,*45

[17:06:04.827]收←◆$GPGGA,090558,3958.87665,N,11620.74773,E,1,29,,47.016,M,,M,,*45

[17:06:05.857]收←◆$GPGGA,090558,3958.87665,N,11620.74773,E,1,29,,47.016,M,,M,,*45

[17:06:06.862]收←◆$GPGGA,090558,3958.87665,N,11620.74773,E,1,29,,47.016,M,,M,,*45

[17:06:07.818]收←◆$GPGGA,090558,3958.87665,N,11620.74773,E,1,29,,47.016,M,,M,,*45

[17:06:08.855]收←◆$GPGGA,090558,3958.87665,N,11620.74773,E,1,29,,47.016,M,,M,,*45

[17:06:09.880]收←◆$GPGGA,090558,3958.87665,N,11620.74773,E,1,29,,47.016,M,,M,,*45

[17:06:10.812]收←◆$GPGGA,090558,3958.87665,N,11620.74773,E,1,29,,47.016,M,,M,,*45

[17:06:11.869]收←◆$GPGGA,090558,3958.87665,N,11620.74773,E,1,29,,47.016,M,,M,,*45

[17:06:12.866]收←◆$GPGGA,090558,3958.87665,N,11620.74773,E,1,29,,47.016,M,,M,,*45

[17:06:13.865]收←◆$GPGGA,090558,3958.87665,N,11620.74773,E,1,29,,47.016,M,,M,,*45

[17:06:14.887]收←◆$GPGGA,090558,3958.87665,N,11620.74773,E,1,29,,47.016,M,,M,,*45

[17:06:15.883]收←◆$GPGGA,090558,3958.87665,N,11620.74773,E,1,29,,47.016,M,,M,,*45

[17:06:16.903]收←◆$GPGGA,090558,3958.87665,N,11620.74773,E,1,29,,47.016,M,,M,,*45

[17:06:17.890]收←◆$GPGGA,090558,3958.87665,N,11620.74773,E,1,29,,47.016,M,,M,,*45

[17:06:18.833]收←◆$GPGGA,090558,3958.87665,N,11620.74773,E,1,29,,47.016,M,,M,,*45

[17:06:19.877]收←◆$GPGGA,090558,3958.87665,N,11620.74773,E,1,29,,47.016,M,,M,,*45

[17:06:20.889]收←◆$GPGGA,090558,3958.87665,N,11620.74773,E,1,29,,47.016,M,,M,,*45

[17:06:21.882]收←◆$GPGGA,090558,3958.87665,N,11620.74773,E,1,29,,47.016,M,,M,,*45

[17:06:22.883]收←◆$GPGGA,090558,3958.87665,N,11620.74773,E,1,29,,47.016,M,,M,,*45

[17:06:23.859]收←◆$GPGGA,090558,3958.87665,N,11620.74773,E,1,29,,47.016,M,,M,,*45

[17:06:24.847]收←◆$GPGGA,090558,3958.87665,N,11620.74773,E,1,29,,47.016,M,,M,,*45

[17:06:25.849]收←◆$GPGGA,090558,3958.87665,N,11620.74773,E,1,29,,47.016,M,,M,,*45

[17:06:26.885]收←◆$GPGGA,090558,3958.87665,N,11620.74773,E,1,29,,47.016,M,,M,,*45

[17:06:27.856]收←◆$GPGGA,090558,3958.87665,N,11620.74773,E,1,29,,47.016,M,,M,,*45

[17:06:28.862]收←◆$GPGGA,090558,3958.87665,N,11620.74773,E,1,29,,47.016,M,,M,,*45

[17:06:29.904]收←◆$GPGGA,090558,3958.87665,N,11620.74773,E,1,29,,47.016,M,,M,,*45

[17:06:30.858]收←◆$GPGGA,090558,3958.87665,N,11620.74773,E,1,29,,47.016,M,,M,,*45

[17:06:31.904]收←◆$GPGGA,090558,3958.87665,N,11620.74773,E,1,29,,47.016,M,,M,,*45

[17:06:32.881]收←◆$GPGGA,090558,3958.87665,N,11620.74773,E,1,29,,47.016,M,,M,,*45

[17:06:33.963]收←◆$GPGGA,090558,3958.87665,N,11620.74773,E,1,29,,47.016,M,,M,,*45

[17:06:34.905]收←◆$GPGGA,090558,3958.87665,N,11620.74773,E,1,29,,47.016,M,,M,,*45

[17:06:35.921]收←◆$GPGGA,090558,3958.87665,N,11620.74773,E,1,29,,47.016,M,,M,,*45

[17:06:36.921]收←◆$GPGGA,090558,3958.87665,N,11620.74773,E,1,29,,47.016,M,,M,,*45

[17:06:37.911]收←◆$GPGGA,090558,3958.87665,N,11620.74773,E,1,29,,47.016,M,,M,,*45

[17:06:38.910]收←◆$GPGGA,090558,3958.87665,N,11620.74773,E,1,29,,47.016,M,,M,,*45

[17:06:39.940]收←◆$GPGGA,090558,3958.87665,N,11620.74773,E,1,29,,47.016,M,,M,,*45

[17:06:40.875]收←◆$GPGGA,090558,3958.87665,N,11620.74773,E,1,0,,47.016,M,,M,,*7E

[17:06:41.889]收←◆$GPGGA,090558,3958.87665,N,11620.74773,E,1,0,,47.016,M,,M,,*7E

[17:06:42.917]收←◆$GPGGA,090558,3958.87665,N,11620.74773,E,1,0,,47.016,M,,M,,*7E

[17:06:43.891]收←◆$GPGGA,090642,3958.91942,N,11620.73503,E,1,30,,68.645,M,,M,,*47

[17:06:44.937]收←◆$GPGGA,090643,3958.91697,N,11620.73334,E,1,30,,62.147,M,,M,,*4C

[17:06:45.881]收←◆$GPGGA,090645,3958.92015,N,11620.73439,E,1,30,,65.200,M,,M,,*48

[17:06:46.881]收←◆$GPGGA,090646,3958.92273,N,11620.7323,E,1,30,,64.360,M,,M,,*70

[17:06:47.922]收←◆$GPGGA,090647,3958.92095,N,11620.73612,E,1,30,,55.582,M,,M,,*47

[17:06:48.894]收←◆$GPGGA,090648,3958.91999,N,11620.73842,E,1,30,,54.807,M,,M,,*44

[17:06:49.926]收←◆$GPGGA,090649,3958.92025,N,11620.73884,E,1,30,,53.806,M,,M,,*44

[17:06:50.887]收←◆$GPGGA,090650,3958.92076,N,11620.73919,E,1,30,,51.372,M,,M,,*45

[17:06:51.941]收←◆$GPGGA,090651,3958.92123,N,11620.73902,E,1,30,,51.092,M,,M,,*42

[17:06:52.931]收←◆$GPGGA,090652,3958.92143,N,11620.73902,E,1,30,,50.822,M,,M,,*45

[17:06:53.939]收←◆$GPGGA,090653,3958.92146,N,11620.73901,E,1,30,,50.865,M,,M,,*41

[17:06:54.934]收←◆$GPGGA,090654,3958.92168,N,11620.73909,E,1,34,,50.612,M,,M,,*48

[17:06:55.949]收←◆$GPGGA,090655,3958.92187,N,11620.73905,E,1,34,,51.078,M,,M,,*4F

[17:06:56.960]收←◆$GPGGA,090656,3958.92204,N,11620.73905,E,1,34,,50.726,M,,M,,*49

[17:06:57.909]收←◆$GPGGA,090657,3958.92218,N,11620.73901,E,1,34,,50.523,M,,M,,*46

[17:06:58.940]收←◆$GPGGA,090658,3958.92236,N,11620.73856,E,1,34,,50.751,M,,M,,*41
