$GPGGA,091305,3958.88897,N,11620.69496,E,1,31,,49.957,M,,M,,*49
$GPGGA,091305,3958.88897,N,11620.69496,E,1,31,,49.957,M,,M,,*49
$GPGGA,091305,3958.88897,N,11620.69496,E,1,31,,49.957,M,,M,,*49
$GPGGA,091305,3958.88897,N,11620.69496,E,1,31,,49.957,M,,M,,*49
$GPGGA,091305,3958.88897,N,11620.69496,E,1,31,,49.957,M,,M,,*49
$GPGGA,091305,3958.88897,N,11620.69496,E,1,31,,49.957,M,,M,,*49
$GPGGA,091305,3958.88897,N,11620.69496,E,1,31,,49.957,M,,M,,*49
$GPGGA,091305,3958.88897,N,11620.69496,E,1,31,,49.957,M,,M,,*49
$GPGGA,091305,3958.88897,N,11620.69496,E,1,31,,49.957,M,,M,,*49
$GPGGA,091305,3958.88897,N,11620.69496,E,1,31,,49.957,M,,M,,*49
$GPGGA,091305,3958.88897,N,11620.69496,E,1,31,,49.957,M,,M,,*49
$GPGGA,091305,3958.88897,N,11620.69496,E,1,0,,49.957,M,,M,,*7B
$GPGGA,091305,3958.88897,N,11620.69496,E,1,0,,49.957,M,,M,,*7B
$GPGGA,091305,3958.88897,N,11620.69496,E,1,0,,49.957,M,,M,,*7B
$GPGGA,091328,3958.88785,N,11620.70054,E,1,30,,46.307,M,,M,,*49
$GPGGA,091329,3958.89285,N,11620.70571,E,1,31,,45.801,M,,M,,*41
$GPGGA,091329,3958.89285,N,11620.70571,E,1,31,,45.801,M,,M,,*41
$GPGGA,091329,3958.89285,N,11620.70571,E,1,31,,45.801,M,,M,,*41
$GPGGA,091329,3958.89285,N,11620.70571,E,1,31,,45.801,M,,M,,*41
$GPGGA,091329,3958.89285,N,11620.70571,E,1,31,,45.801,M,,M,,*41
$GPGGA,091329,3958.89285,N,11620.70571,E,1,31,,45.801,M,,M,,*41
$GPGGA,091329,3958.89285,N,11620.70571,E,1,31,,45.801,M,,M,,*41
$GPGGA,091329,3958.89285,N,11620.70571,E,1,31,,45.801,M,,M,,*41
$GPGGA,091329,3958.89285,N,11620.70571,E,1,31,,45.801,M,,M,,*41
$GPGGA,091329,3958.89285,N,11620.70571,E,1,31,,45.801,M,,M,,*41
$GPGGA,091329,3958.89285,N,11620.70571,E,1,31,,45.801,M,,M,,*41
$GPGGA,091329,3958.89285,N,11620.70571,E,1,31,,45.801,M,,M,,*41
$GPGGA,091329,3958.89285,N,11620.70571,E,1,31,,45.801,M,,M,,*41
$GPGGA,091329,3958.89285,N,11620.70571,E,1,31,,45.801,M,,M,,*41
$GPGGA,091329,3958.89285,N,11620.70571,E,1,31,,45.801,M,,M,,*41
$GPGGA,091329,3958.89285,N,11620.70571,E,1,31,,45.801,M,,M,,*41
$GPGGA,091329,3958.89285,N,11620.70571,E,1,31,,45.801,M,,M,,*41
$GPGGA,091329,3958.89285,N,11620.70571,E,1,31,,45.801,M,,M,,*41
$GPGGA,091329,3958.89285,N,11620.70571,E,1,31,,45.801,M,,M,,*41
$GPGGA,091329,3958.89285,N,11620.70571,E,1,31,,45.801,M,,M,,*41
$GPGGA,091329,3958.89285,N,11620.70571,E,1,31,,45.801,M,,M,,*41
$GPGGA,091329,3958.89285,N,11620.70571,E,1,31,,45.801,M,,M,,*41
$GPGGA,091329,3958.89285,N,11620.70571,E,1,31,,45.801,M,,M,,*41
$GPGGA,091329,3958.89285,N,11620.70571,E,1,31,,45.801,M,,M,,*41
$GPGGA,091329,3958.89285,N,11620.70571,E,1,31,,45.801,M,,M,,*41
$GPGGA,091329,3958.89285,N,11620.70571,E,1,31,,45.801,M,,M,,*41
$GPGGA,091329,3958.89285,N,11620.70571,E,1,31,,45.801,M,,M,,*41
$GPGGA,091329,3958.89285,N,11620.70571,E,1,31,,45.801,M,,M,,*41
$GPGGA,091329,3958.89285,N,11620.70571,E,1,31,,45.801,M,,M,,*41
$GPGGA,091329,3958.89285,N,11620.70571,E,1,31,,45.801,M,,M,,*41
$GPGGA,091329,3958.89285,N,11620.70571,E,1,31,,45.801,M,,M,,*41
$GPGGA,091329,3958.89285,N,11620.70571,E,1,31,,45.801,M,,M,,*41
$GPGGA,091329,3958.89285,N,11620.70571,E,1,31,,45.801,M,,M,,*41
$GPGGA,091329,3958.89285,N,11620.70571,E,1,31,,45.801,M,,M,,*41
$GPGGA,091329,3958.89285,N,11620.70571,E,1,31,,45.801,M,,M,,*41
$GPGGA,091329,3958.89285,N,11620.70571,E,1,31,,45.801,M,,M,,*41
$GPGGA,091329,3958.89285,N,11620.70571,E,1,31,,45.801,M,,M,,*41
$GPGGA,091329,3958.89285,N,11620.70571,E,1,31,,45.801,M,,M,,*41
$GPGGA,091329,3958.89285,N,11620.70571,E,1,31,,45.801,M,,M,,*41
$GPGGA,091329,3958.89285,N,11620.70571,E,1,31,,45.801,M,,M,,*41
$GPGGA,091329,3958.89285,N,11620.70571,E,1,31,,45.801,M,,M,,*41
$GPGGA,091329,3958.89285,N,11620.70571,E,1,31,,45.801,M,,M,,*41
$GPGGA,091329,3958.89285,N,11620.70571,E,1,31,,45.801,M,,M,,*41
$GPGGA,091329,3958.89285,N,11620.70571,E,1,31,,45.801,M,,M,,*41
$GPGGA,091329,3958.89285,N,11620.70571,E,1,31,,45.801,M,,M,,*41
$GPGGA,091329,3958.89285,N,11620.70571,E,1,31,,45.801,M,,M,,*41
$GPGGA,091329,3958.89285,N,11620.70571,E,1,31,,45.801,M,,M,,*41
$GPGGA,091329,3958.89285,N,11620.70571,E,1,31,,45.801,M,,M,,*41
$GPGGA,091329,3958.89285,N,11620.70571,E,1,31,,45.801,M,,M,,*41
$GPGGA,091329,3958.89285,N,11620.70571,E,1,31,,45.801,M,,M,,*41
$GPGGA,091329,3958.89285,N,11620.70571,E,1,31,,45.801,M,,M,,*41
$GPGGA,091329,3958.89285,N,11620.70571,E,1,31,,45.801,M,,M,,*41
$GPGGA,091329,3958.89285,N,11620.70571,E,1,31,,45.801,M,,M,,*41
$GPGGA,091329,3958.89285,N,11620.70571,E,1,31,,45.801,M,,M,,*41
$GPGGA,091329,3958.89285,N,11620.70571,E,1,31,,45.801,M,,M,,*41
$GPGGA,091329,3958.89285,N,11620.70571,E,1,31,,45.801,M,,M,,*41
$GPGGA,091329,3958.89285,N,11620.70571,E,1,31,,45.801,M,,M,,*41
$GPGGA,091329,3958.89285,N,11620.70571,E,1,31,,45.801,M,,M,,*41
$GPGGA,091329,3958.89285,N,11620.70571,E,1,31,,45.801,M,,M,,*41
$GPGGA,091329,3958.89285,N,11620.70571,E,1,31,,45.801,M,,M,,*41
$GPGGA,091329,3958.89285,N,11620.70571,E,1,31,,45.801,M,,M,,*41
$GPGGA,091329,3958.89285,N,11620.70571,E,1,31,,45.801,M,,M,,*41
$GPGGA,091329,3958.89285,N,11620.70571,E,1,31,,45.801,M,,M,,*41
$GPGGA,091329,3958.89285,N,11620.70571,E,1,31,,45.801,M,,M,,*41
$GPGGA,091329,3958.89285,N,11620.70571,E,1,31,,45.801,M,,M,,*41
$GPGGA,091329,3958.89285,N,11620.70571,E,1,31,,45.801,M,,M,,*41
$GPGGA,091329,3958.89285,N,11620.70571,E,1,31,,45.801,M,,M,,*41
$GPGGA,091329,3958.89285,N,11620.70571,E,1,31,,45.801,M,,M,,*41
$GPGGA,091329,3958.89285,N,11620.70571,E,1,31,,45.801,M,,M,,*41
$GPGGA,091329,3958.89285,N,11620.70571,E,1,31,,45.801,M,,M,,*41
$GPGGA,091329,3958.89285,N,11620.70571,E,1,31,,45.801,M,,M,,*41
$GPGGA,091329,3958.89285,N,11620.70571,E,1,31,,45.801,M,,M,,*41
$GPGGA,091329,3958.89285,N,11620.70571,E,1,31,,45.801,M,,M,,*41
$GPGGA,091329,3958.89285,N,11620.70571,E,1,31,,45.801,M,,M,,*41
$GPGGA,091329,3958.89285,N,11620.70571,E,1,31,,45.801,M,,M,,*41
$GPGGA,091329,3958.89285,N,11620.70571,E,1,31,,45.801,M,,M,,*41
$GPGGA,091329,3958.89285,N,11620.70571,E,1,31,,45.801,M,,M,,*41
$GPGGA,091329,3958.89285,N,11620.70571,E,1,31,,45.801,M,,M,,*41
$GPGGA,091329,3958.89285,N,11620.70571,E,1,31,,45.801,M,,M,,*41
$GPGGA,091329,3958.89285,N,11620.70571,E,1,31,,45.801,M,,M,,*41
$GPGGA,091329,3958.89285,N,11620.70571,E,1,31,,45.801,M,,M,,*41
$GPGGA,091329,3958.89285,N,11620.70571,E,1,31,,45.801,M,,M,,*41
$GPGGA,091329,3958.89285,N,11620.70571,E,1,31,,45.801,M,,M,,*41
$GPGGA,091329,3958.89285,N,11620.70571,E,1,31,,45.801,M,,M,,*41
$GPGGA,091329,3958.89285,N,11620.70571,E,1,31,,45.801,M,,M,,*41
$GPGGA,091329,3958.89285,N,11620.70571,E,1,31,,45.801,M,,M,,*41
$GPGGA,091329,3958.89285,N,11620.70571,E,1,31,,45.801,M,,M,,*41
$GPGGA,091329,3958.89285,N,11620.70571,E,1,31,,45.801,M,,M,,*41
$GPGGA,091329,3958.89285,N,11620.70571,E,1,31,,45.801,M,,M,,*41
$GPGGA,091329,3958.89285,N,11620.70571,E,1,31,,45.801,M,,M,,*41
$GPGGA,091329,3958.89285,N,11620.70571,E,1,31,,45.801,M,,M,,*41
$GPGGA,091329,3958.89285,N,11620.70571,E,1,31,,45.801,M,,M,,*41
$GPGGA,091329,3958.89285,N,11620.70571,E,1,31,,45.801,M,,M,,*41
$GPGGA,091329,3958.89285,N,11620.70571,E,1,31,,45.801,M,,M,,*41
$GPGGA,091329,3958.89285,N,11620.70571,E,1,31,,45.801,M,,M,,*41
$GPGGA,091329,3958.89285,N,11620.70571,E,1,31,,45.801,M,,M,,*41
$GPGGA,091329,3958.89285,N,11620.70571,E,1,31,,45.801,M,,M,,*41
$GPGGA,091329,3958.89285,N,11620.70571,E,1,31,,45.801,M,,M,,*41
$GPGGA,091329,3958.89285,N,11620.70571,E,1,31,,45.801,M,,M,,*41
$GPGGA,091329,3958.89285,N,11620.70571,E,1,31,,45.801,M,,M,,*41
$GPGGA,091329,3958.89285,N,11620.70571,E,1,31,,45.801,M,,M,,*41
$GPGGA,091329,3958.89285,N,11620.70571,E,1,31,,45.801,M,,M,,*41
$GPGGA,091329,3958.89285,N,11620.70571,E,1,31,,45.801,M,,M,,*41
$GPGGA,091329,3958.89285,N,11620.70571,E,1,31,,45.801,M,,M,,*41
$GPGGA,091329,3958.89285,N,11620.70571,E,1,31,,45.801,M,,M,,*41
$GPGGA,091329,3958.89285,N,11620.70571,E,1,31,,45.801,M,,M,,*41
$GPGGA,091329,3958.89285,N,11620.70571,E,1,31,,45.801,M,,M,,*41
$GPGGA,091329,3958.89285,N,11620.70571,E,1,31,,45.801,M,,M,,*41
$GPGGA,091329,3958.89285,N,11620.70571,E,1,31,,45.801,M,,M,,*41
