
[11:53:57.379]收←◆$GPGGA,035356,3958.99405,N,11620.14668,E,1,25,,55.278,M,,M,,*41

[11:53:58.392]收←◆$GPGGA,035357,3958.99274,N,11620.14705,E,1,25,,53.401,M,,M,,*44

[11:53:59.380]收←◆$GPGGA,035358,3958.9932,N,11620.14757,E,1,25,,52.638,M,,M,,*75

[11:54:00.416]收←◆$GPGGA,035359,3958.99347,N,11620.14822,E,1,25,,51.360,M,,M,,*43

[11:54:01.379]收←◆$GPGGA,035400,3958.99433,N,11620.14887,E,1,25,,47.508,M,,M,,*4C

[11:54:02.401]收←◆$GPGGA,035401,3958.99494,N,11620.14949,E,1,25,,45.103,M,,M,,*4E

[11:54:03.401]收←◆$GPGGA,035402,3958.99522,N,11620.14968,E,1,25,,43.421,M,,M,,*41

[11:54:04.410]收←◆$GPGGA,035403,3958.9952,N,11620.1493,E,1,25,,43.846,M,,M,,*42

[11:54:05.400]收←◆$GPGGA,035404,3958.99489,N,11620.14934,E,1,25,,44.614,M,,M,,*4D

[11:54:06.437]收←◆$GPGGA,035405,3958.99461,N,11620.14954,E,1,25,,44.915,M,,M,,*42

[11:54:07.418]收←◆$GPGGA,035406,3958.99455,N,11620.14952,E,1,25,,44.835,M,,M,,*43

[11:54:08.405]收←◆$GPGGA,035407,3958.99469,N,11620.14923,E,1,25,,44.400,M,,M,,*41

[11:54:09.426]收←◆$GPGGA,035408,3958.99479,N,11620.14894,E,1,28,,44.452,M,,M,,*48

[11:54:10.429]收←◆$GPGGA,035409,3958.99492,N,11620.14884,E,1,28,,43.967,M,,M,,*41

[11:54:11.416]收←◆$GPGGA,035410,3958.99511,N,11620.14862,E,1,28,,43.033,M,,M,,*43

[11:54:12.405]收←◆$GPGGA,035411,3958.99558,N,11620.14859,E,1,28,,42.020,M,,M,,*44

[11:54:13.416]收←◆$GPGGA,035412,3958.99612,N,11620.14841,E,1,28,,40.909,M,,M,,*43

[11:54:14.419]收←◆$GPGGA,035413,3958.99645,N,11620.14838,E,1,28,,39.375,M,,M,,*41

[11:54:15.409]收←◆$GPGGA,035414,3958.99665,N,11620.14848,E,1,27,,38.302,M,,M,,*4D

[11:54:16.408]收←◆$GPGGA,035415,3958.99675,N,11620.14868,E,1,27,,37.414,M,,M,,*40

[11:54:17.443]收←◆$GPGGA,035416,3958.99683,N,11620.14873,E,1,27,,36.666,M,,M,,*46

[11:54:18.428]收←◆$GPGGA,035417,3958.99686,N,11620.14879,E,1,28,,36.194,M,,M,,*4D

[11:54:19.431]收←◆$GPGGA,035418,3958.99667,N,11620.14865,E,1,29,,35.908,M,,M,,*4F

[11:54:20.441]收←◆$GPGGA,035419,3958.99647,N,11620.1483,E,1,29,,35.686,M,,M,,*75

[11:54:21.433]收←◆$GPGGA,035420,3958.99627,N,11620.14807,E,1,29,,35.227,M,,M,,*42

[11:54:22.451]收←◆$GPGGA,035421,3958.99583,N,11620.14756,E,1,29,,34.647,M,,M,,*46

[11:54:23.437]收←◆$GPGGA,035422,3958.99518,N,11620.14687,E,1,29,,34.066,M,,M,,*4F

[11:54:24.432]收←◆$GPGGA,035423,3958.99436,N,11620.14604,E,1,32,,33.147,M,,M,,*47

[11:54:25.440]收←◆$GPGGA,035424,3958.99348,N,11620.14541,E,1,32,,32.333,M,,M,,*4C

[11:54:26.453]收←◆$GPGGA,035425,3958.99259,N,11620.14517,E,1,32,,32.263,M,,M,,*4B

[11:54:27.445]收←◆$GPGGA,035426,3958.99146,N,11620.14495,E,1,32,,32.184,M,,M,,*44

[11:54:28.467]收←◆$GPGGA,035427,3958.99064,N,11620.14515,E,1,32,,31.910,M,,M,,*4B

[11:54:29.504]收←◆$GPGGA,035428,3958.98975,N,11620.14553,E,1,32,,31.758,M,,M,,*4C

[11:54:30.437]收←◆$GPGGA,035429,3958.98872,N,11620.14605,E,1,30,,32.011,M,,M,,*40

[11:54:31.451]收←◆$GPGGA,035430,3958.98777,N,11620.14625,E,1,31,,32.324,M,,M,,*44

[11:54:32.445]收←◆$GPGGA,035431,3958.9867,N,11620.14623,E,1,31,,32.790,M,,M,,*7E

[11:54:33.443]收←◆$GPGGA,035432,3958.98571,N,11620.14613,E,1,31,,33.143,M,,M,,*45

[11:54:34.450]收←◆$GPGGA,035433,3958.98486,N,11620.146,E,1,31,,33.335,M,,M,,*4C

[11:54:35.448]收←◆$GPGGA,035434,3958.98387,N,11620.14581,E,1,31,,33.587,M,,M,,*48

[11:54:36.460]收←◆$GPGGA,035435,3958.98298,N,11620.14544,E,1,32,,33.968,M,,M,,*41

[11:54:37.491]收←◆$GPGGA,035436,3958.98186,N,11620.14496,E,1,32,,34.722,M,,M,,*47

[11:54:38.464]收←◆$GPGGA,035437,3958.98065,N,11620.14471,E,1,31,,35.412,M,,M,,*41

[11:54:39.513]收←◆$GPGGA,035438,3958.97968,N,11620.14476,E,1,31,,35.760,M,,M,,*44

[11:54:40.456]收←◆$GPGGA,035439,3958.97874,N,11620.14481,E,1,31,,36.208,M,,M,,*49

[11:54:41.470]收←◆$GPGGA,035440,3958.97773,N,11620.14485,E,1,31,,36.784,M,,M,,*4A

[11:54:42.489]收←◆$GPGGA,035441,3958.97664,N,11620.14531,E,1,31,,36.916,M,,M,,*47

[11:54:43.469]收←◆$GPGGA,035442,3958.97581,N,11620.14576,E,1,32,,37.182,M,,M,,*48

[11:54:44.465]收←◆$GPGGA,035443,3958.97511,N,11620.14613,E,1,32,,36.912,M,,M,,*40

[11:54:45.473]收←◆$GPGGA,035444,3958.97428,N,11620.1469,E,1,32,,36.846,M,,M,,*77

[11:54:46.471]收←◆$GPGGA,035445,3958.97343,N,11620.1477,E,1,32,,36.597,M,,M,,*72

[11:54:47.466]收←◆$GPGGA,035446,3958.97269,N,11620.15096,E,1,32,,35.321,M,,M,,*4E

[11:54:48.494]收←◆$GPGGA,035447,3958.97142,N,11620.15147,E,1,32,,35.192,M,,M,,*42

[11:54:49.542]收←◆$GPGGA,035448,3958.97009,N,11620.15195,E,1,32,,35.792,M,,M,,*4A

[11:54:50.487]收←◆$GPGGA,035449,3958.96919,N,11620.15242,E,1,32,,35.303,M,,M,,*47

[11:54:51.482]收←◆$GPGGA,035450,3958.96858,N,11620.15291,E,1,32,,35.058,M,,M,,*48

[11:54:52.483]收←◆$GPGGA,035451,3958.96809,N,11620.15381,E,1,31,,34.666,M,,M,,*44

[11:54:53.485]收←◆$GPGGA,035452,3958.96725,N,11620.15376,E,1,31,,35.400,M,,M,,*4D

[11:54:54.485]收←◆$GPGGA,035453,3958.96625,N,11620.15335,E,1,31,,36.215,M,,M,,*4B

[11:54:55.515]收←◆$GPGGA,035454,3958.96557,N,11620.15335,E,1,32,,36.227,M,,M,,*48

[11:54:56.496]收←◆$GPGGA,035455,3958.96493,N,11620.1534,E,1,32,,36.253,M,,M,,*71

[11:54:57.500]收←◆$GPGGA,035456,3958.96424,N,11620.1535,E,1,32,,36.199,M,,M,,*7A

[11:54:58.513]收←◆$GPGGA,035457,3958.96352,N,11620.15364,E,1,32,,36.347,M,,M,,*4B

[11:54:59.486]收←◆$GPGGA,035458,3958.96276,N,11620.15363,E,1,32,,36.309,M,,M,,*4E

[11:55:00.537]收←◆$GPGGA,035459,3958.96194,N,11620.15368,E,1,32,,36.302,M,,M,,*40

[11:55:01.516]收←◆$GPGGA,035500,3958.96115,N,11620.15388,E,1,32,,36.272,M,,M,,*4C

[11:55:02.512]收←◆$GPGGA,035501,3958.96027,N,11620.15383,E,1,32,,36.259,M,,M,,*4F

[11:55:03.517]收←◆$GPGGA,035502,3958.95947,N,11620.15388,E,1,33,,36.188,M,,M,,*45

[11:55:04.526]收←◆$GPGGA,035503,3958.95869,N,11620.15395,E,1,33,,36.150,M,,M,,*40

[11:55:05.501]收←◆$GPGGA,035504,3958.95791,N,11620.15401,E,1,33,,36.070,M,,M,,*46

[11:55:06.518]收←◆$GPGGA,035505,3958.95705,N,11620.15398,E,1,33,,36.007,M,,M,,*4D

[11:55:07.515]收←◆$GPGGA,035506,3958.95633,N,11620.15388,E,1,34,,35.917,M,,M,,*47

[11:55:08.516]收←◆$GPGGA,035507,3958.95559,N,11620.15387,E,1,34,,35.875,M,,M,,*43

[11:55:09.519]收←◆$GPGGA,035508,3958.95478,N,11620.15408,E,1,34,,35.819,M,,M,,*44

[11:55:10.527]收←◆$GPGGA,035509,3958.95404,N,11620.15417,E,1,33,,35.686,M,,M,,*4F

[11:55:11.537]收←◆$GPGGA,035510,3958.95297,N,11620.15429,E,1,33,,35.585,M,,M,,*46

[11:55:12.532]收←◆$GPGGA,035511,3958.95147,N,11620.15374,E,1,33,,34.461,M,,M,,*4C

[11:55:13.530]收←◆$GPGGA,035512,3958.95082,N,11620.15432,E,1,33,,33.889,M,,M,,*4F

[11:55:14.533]收←◆$GPGGA,035513,3958.95007,N,11620.15433,E,1,33,,34.795,M,,M,,*47

[11:55:15.548]收←◆$GPGGA,035514,3958.94933,N,11620.15435,E,1,33,,35.021,M,,M,,*40

[11:55:16.527]收←◆$GPGGA,035515,3958.94845,N,11620.15396,E,1,33,,36.782,M,,M,,*42

[11:55:17.543]收←◆$GPGGA,035516,3958.94729,N,11620.15384,E,1,33,,36.795,M,,M,,*41

[11:55:18.550]收←◆$GPGGA,035517,3958.94657,N,11620.15315,E,1,33,,37.059,M,,M,,*46

[11:55:19.589]收←◆$GPGGA,035518,3958.94481,N,11620.15204,E,1,33,,38.064,M,,M,,*40

[11:55:20.544]收←◆$GPGGA,035519,3958.94374,N,11620.15062,E,1,33,,39.944,M,,M,,*44

[11:55:21.544]收←◆$GPGGA,035520,3958.94358,N,11620.14883,E,1,33,,40.986,M,,M,,*46

[11:55:22.548]收←◆$GPGGA,035521,3958.94365,N,11620.14765,E,1,32,,41.232,M,,M,,*4A

[11:55:23.534]收←◆$GPGGA,035522,3958.9437,N,11620.14659,E,1,32,,41.323,M,,M,,*72

[11:55:24.556]收←◆$GPGGA,035523,3958.9439,N,11620.14535,E,1,32,,41.425,M,,M,,*75

[11:55:25.541]收←◆$GPGGA,035524,3958.94382,N,11620.14418,E,1,32,,41.580,M,,M,,*41

[11:55:26.547]收←◆$GPGGA,035525,3958.94388,N,11620.1429,E,1,31,,41.743,M,,M,,*72

[11:55:27.568]收←◆$GPGGA,035526,3958.94384,N,11620.14168,E,1,32,,41.985,M,,M,,*4E

[11:55:28.578]收←◆$GPGGA,035527,3958.94373,N,11620.14047,E,1,32,,42.119,M,,M,,*45

[11:55:29.561]收←◆$GPGGA,035528,3958.94359,N,11620.13933,E,1,32,,42.333,M,,M,,*45

[11:55:30.571]收←◆$GPGGA,035529,3958.94363,N,11620.13811,E,1,32,,42.542,M,,M,,*4C

[11:55:31.572]收←◆$GPGGA,035530,3958.94372,N,11620.1369,E,1,32,,42.729,M,,M,,*7C

[11:55:32.610]收←◆$GPGGA,035531,3958.94372,N,11620.13586,E,1,32,,42.899,M,,M,,*4D

[11:55:33.555]收←◆$GPGGA,035532,3958.9437,N,11620.13472,E,1,32,,43.026,M,,M,,*7B

[11:55:34.575]收←◆$GPGGA,035533,3958.94367,N,11620.13361,E,1,32,,43.124,M,,M,,*4A

[11:55:35.567]收←◆$GPGGA,035534,3958.94372,N,11620.13262,E,1,32,,43.303,M,,M,,*4C

[11:55:36.585]收←◆$GPGGA,035535,3958.94374,N,11620.1315,E,1,31,,43.490,M,,M,,*77

[11:55:37.573]收←◆$GPGGA,035536,3958.94382,N,11620.13024,E,1,31,,43.700,M,,M,,*45

[11:55:38.568]收←◆$GPGGA,035537,3958.94447,N,11620.12824,E,1,31,,44.438,M,,M,,*4C

[11:55:39.603]收←◆$GPGGA,035538,3958.94446,N,11620.12699,E,1,31,,44.787,M,,M,,*4D

[11:55:40.588]收←◆$GPGGA,035539,3958.94441,N,11620.12599,E,1,31,,45.054,M,,M,,*40

[11:55:41.606]收←◆$GPGGA,035540,3958.94429,N,11620.12494,E,1,31,,45.450,M,,M,,*4C

[11:55:42.595]收←◆$GPGGA,035541,3958.94428,N,11620.12395,E,1,31,,45.554,M,,M,,*4F

[11:55:43.590]收←◆$GPGGA,035542,3958.94426,N,11620.12304,E,1,31,,45.679,M,,M,,*46

[11:55:44.621]收←◆$GPGGA,035543,3958.9442,N,11620.12203,E,1,30,,45.743,M,,M,,*7E

[11:55:45.576]收←◆$GPGGA,035544,3958.94417,N,11620.12083,E,1,30,,45.855,M,,M,,*4F

[11:55:46.627]收←◆$GPGGA,035545,3958.94429,N,11620.11955,E,1,30,,45.960,M,,M,,*45

[11:55:47.584]收←◆$GPGGA,035546,3958.94423,N,11620.1182,E,1,30,,45.904,M,,M,,*7D

[11:55:48.611]收←◆$GPGGA,035547,3958.94419,N,11620.11704,E,1,30,,45.883,M,,M,,*42

[11:55:49.647]收←◆$GPGGA,035548,3958.94433,N,11620.11597,E,1,31,,46.047,M,,M,,*4F

[11:55:50.602]收←◆$GPGGA,035549,3958.94434,N,11620.11481,E,1,31,,46.028,M,,M,,*46

[11:55:51.614]收←◆$GPGGA,035550,3958.94417,N,11620.11371,E,1,31,,45.950,M,,M,,*42

[11:55:52.624]收←◆$GPGGA,035551,3958.94395,N,11620.11259,E,1,30,,45.770,M,,M,,*48

[11:55:53.620]收←◆$GPGGA,035552,3958.94377,N,11620.11113,E,1,29,,48.970,M,,M,,*41

[11:55:54.609]收←◆$GPGGA,035553,3958.94371,N,11620.10961,E,1,29,,50.693,M,,M,,*41

[11:55:55.610]收←◆$GPGGA,035554,3958.94341,N,11620.10742,E,1,29,,50.949,M,,M,,*42

[11:55:56.643]收←◆$GPGGA,035555,3958.94335,N,11620.10572,E,1,29,,50.862,M,,M,,*49

[11:55:57.619]收←◆$GPGGA,035556,3958.94294,N,11620.10493,E,1,29,,50.193,M,,M,,*49

[11:55:58.608]收←◆$GPGGA,035557,3958.94285,N,11620.104,E,1,30,,50.348,M,,M,,*4E

[11:55:59.607]收←◆$GPGGA,035558,3958.94286,N,11620.10314,E,1,30,,50.394,M,,M,,*41

[11:56:00.612]收←◆$GPGGA,035559,3958.94294,N,11620.1023,E,1,30,,50.191,M,,M,,*73

[11:56:01.622]收←◆$GPGGA,035600,3958.9429,N,11620.10127,E,1,32,,50.385,M,,M,,*78

[11:56:02.613]收←◆$GPGGA,035601,3958.94292,N,11620.10024,E,1,33,,50.570,M,,M,,*44

[11:56:03.614]收←◆$GPGGA,035602,3958.94288,N,11620.09934,E,1,33,,50.801,M,,M,,*47

[11:56:04.640]收←◆$GPGGA,035603,3958.9428,N,11620.0986,E,1,32,,51.052,M,,M,,*40

[11:56:05.631]收←◆$GPGGA,035604,3958.94257,N,11620.0981,E,1,32,,51.232,M,,M,,*7E

[11:56:06.668]收←◆$GPGGA,035605,3958.94285,N,11620.09967,E,1,32,,51.612,M,,M,,*47

[11:56:07.644]收←◆$GPGGA,035606,3958.94315,N,11620.10032,E,1,32,,51.739,M,,M,,*45

[11:56:08.627]收←◆$GPGGA,035607,3958.94347,N,11620.10126,E,1,32,,51.833,M,,M,,*42

[11:56:09.653]收←◆$GPGGA,035608,3958.94374,N,11620.10227,E,1,32,,51.897,M,,M,,*41

[11:56:10.655]收←◆$GPGGA,035609,3958.94395,N,11620.10345,E,1,32,,51.829,M,,M,,*4F

[11:56:11.637]收←◆$GPGGA,035610,3958.94423,N,11620.1047,E,1,32,,51.708,M,,M,,*70

[11:56:12.682]收←◆$GPGGA,035611,3958.94449,N,11620.1058,E,1,32,,51.565,M,,M,,*7A

[11:56:13.655]收←◆$GPGGA,035612,3958.94476,N,11620.10688,E,1,32,,51.522,M,,M,,*4D

[11:56:14.662]收←◆$GPGGA,035613,3958.94508,N,11620.10787,E,1,32,,51.422,M,,M,,*4B

[11:56:15.673]收←◆$GPGGA,035614,3958.94518,N,11620.10873,E,1,31,,51.414,M,,M,,*4F

[11:56:16.654]收←◆$GPGGA,035615,3958.94537,N,11620.10971,E,1,30,,51.562,M,,M,,*41

[11:56:17.650]收←◆$GPGGA,035616,3958.94562,N,11620.11096,E,1,30,,51.565,M,,M,,*44

[11:56:18.669]收←◆$GPGGA,035617,3958.94587,N,11620.11226,E,1,29,,51.665,M,,M,,*4C

[11:56:19.695]收←◆$GPGGA,035618,3958.94606,N,11620.11353,E,1,29,,51.739,M,,M,,*42

[11:56:20.650]收←◆$GPGGA,035619,3958.94613,N,11620.11467,E,1,29,,52.028,M,,M,,*43

[11:56:21.675]收←◆$GPGGA,035620,3958.94626,N,11620.1158,E,1,29,,51.911,M,,M,,*77

[11:56:22.659]收←◆$GPGGA,035621,3958.94624,N,11620.11685,E,1,29,,51.740,M,,M,,*48

[11:56:23.660]收←◆$GPGGA,035622,3958.94626,N,11620.11772,E,1,30,,51.614,M,,M,,*48

[11:56:24.683]收←◆$GPGGA,035623,3958.94647,N,11620.11865,E,1,30,,51.584,M,,M,,*4D

[11:56:25.658]收←◆$GPGGA,035624,3958.94672,N,11620.11972,E,1,30,,51.511,M,,M,,*47

[11:56:26.679]收←◆$GPGGA,035625,3958.94695,N,11620.12079,E,1,30,,51.577,M,,M,,*4E

[11:56:27.667]收←◆$GPGGA,035626,3958.94709,N,11620.12196,E,1,31,,51.625,M,,M,,*4C

[11:56:28.683]收←◆$GPGGA,035627,3958.9472,N,11620.12301,E,1,30,,51.640,M,,M,,*78

[11:56:29.687]收←◆$GPGGA,035628,3958.94826,N,11620.12509,E,1,30,,52.549,M,,M,,*49

[11:56:30.666]收←◆$GPGGA,035629,3958.94787,N,11620.12657,E,1,29,,52.458,M,,M,,*4D

[11:56:31.674]收←◆$GPGGA,035630,3958.94721,N,11620.12827,E,1,29,,53.523,M,,M,,*4C

[11:56:32.676]收←◆$GPGGA,035631,3958.94719,N,11620.12959,E,1,30,,53.858,M,,M,,*47

[11:56:33.698]收←◆$GPGGA,035632,3958.9472,N,11620.13102,E,1,30,,53.962,M,,M,,*71

[11:56:34.728]收←◆$GPGGA,035633,3958.9471,N,11620.13232,E,1,30,,54.019,M,,M,,*71

[11:56:35.685]收←◆$GPGGA,035634,3958.94672,N,11620.13411,E,1,30,,53.359,M,,M,,*44

[11:56:36.704]收←◆$GPGGA,035635,3958.94653,N,11620.13547,E,1,30,,51.951,M,,M,,*44

[11:56:37.689]收←◆$GPGGA,035636,3958.9464,N,11620.13658,E,1,30,,51.826,M,,M,,*79

[11:56:38.710]收←◆$GPGGA,035637,3958.94638,N,11620.1377,E,1,29,,51.662,M,,M,,*7A

[11:56:39.705]收←◆$GPGGA,035638,3958.94629,N,11620.13863,E,1,29,,51.439,M,,M,,*44

[11:56:40.706]收←◆$GPGGA,035639,3958.9462,N,11620.13959,E,1,29,,51.311,M,,M,,*79

[11:56:41.722]收←◆$GPGGA,035640,3958.94608,N,11620.14047,E,1,31,,51.175,M,,M,,*45

[11:56:42.717]收←◆$GPGGA,035641,3958.94613,N,11620.14135,E,1,31,,51.142,M,,M,,*4E

[11:56:43.714]收←◆$GPGGA,035642,3958.94625,N,11620.14249,E,1,30,,51.086,M,,M,,*48

[11:56:44.705]收←◆$GPGGA,035643,3958.94633,N,11620.14357,E,1,30,,51.033,M,,M,,*4E

[11:56:45.733]收←◆$GPGGA,035644,3958.94639,N,11620.14462,E,1,29,,50.984,M,,M,,*4E

[11:56:46.708]收←◆$GPGGA,035645,3958.94656,N,11620.14574,E,1,29,,51.054,M,,M,,*45

[11:56:47.709]收←◆$GPGGA,035646,3958.94686,N,11620.14681,E,1,29,,51.078,M,,M,,*4C

[11:56:48.707]收←◆$GPGGA,035647,3958.94711,N,11620.14789,E,1,28,,51.080,M,,M,,*4D

[11:56:49.713]收←◆$GPGGA,035648,3958.94734,N,11620.14904,E,1,30,,51.158,M,,M,,*43

[11:56:50.722]收←◆$GPGGA,035649,3958.94767,N,11620.15012,E,1,30,,51.126,M,,M,,*42

[11:56:51.769]收←◆$GPGGA,035650,3958.94799,N,11620.15082,E,1,30,,50.979,M,,M,,*41

[11:56:52.733]收←◆$GPGGA,035651,3958.94863,N,11620.15122,E,1,29,,50.958,M,,M,,*4A

[11:56:53.723]收←◆$GPGGA,035652,3958.9495,N,11620.15144,E,1,31,,50.957,M,,M,,*7E

[11:56:54.719]收←◆$GPGGA,035653,3958.95042,N,11620.15144,E,1,31,,50.876,M,,M,,*46

[11:56:55.748]收←◆$GPGGA,035654,3958.95133,N,11620.15143,E,1,31,,50.882,M,,M,,*4A

[11:56:56.721]收←◆$GPGGA,035655,3958.95231,N,11620.15141,E,1,31,,50.959,M,,M,,*4F

[11:56:57.780]收←◆$GPGGA,035656,3958.95308,N,11620.15104,E,1,31,,51.002,M,,M,,*40

[11:56:58.745]收←◆$GPGGA,035657,3958.95386,N,11620.15092,E,1,31,,50.854,M,,M,,*43

[11:56:59.746]收←◆$GPGGA,035658,3958.95465,N,11620.15075,E,1,31,,50.638,M,,M,,*4B

[11:57:00.734]收←◆$GPGGA,035659,3958.95519,N,11620.15064,E,1,31,,50.453,M,,M,,*4F

[11:57:01.735]收←◆$GPGGA,035700,3958.95578,N,11620.15046,E,1,31,,50.389,M,,M,,*45

[11:57:02.749]收←◆$GPGGA,035701,3958.95655,N,11620.15019,E,1,31,,50.408,M,,M,,*4C

[11:57:03.750]收←◆$GPGGA,035702,3958.95741,N,11620.14987,E,1,31,,50.560,M,,M,,*4B

[11:57:04.761]收←◆$GPGGA,035703,3958.95841,N,11620.14954,E,1,31,,50.451,M,,M,,*48

[11:57:05.748]收←◆$GPGGA,035704,3958.95947,N,11620.14925,E,1,31,,50.380,M,,M,,*45

[11:57:06.765]收←◆$GPGGA,035705,3958.96056,N,11620.14907,E,1,31,,50.253,M,,M,,*41

[11:57:07.740]收←◆$GPGGA,035706,3958.96164,N,11620.14915,E,1,31,,50.158,M,,M,,*49

[11:57:08.772]收←◆$GPGGA,035707,3958.96266,N,11620.14891,E,1,31,,50.005,M,,M,,*4D

[11:57:09.761]收←◆$GPGGA,035708,3958.96358,N,11620.14841,E,1,31,,49.825,M,,M,,*41

[11:57:10.777]收←◆$GPGGA,035709,3958.96445,N,11620.14807,E,1,30,,49.682,M,,M,,*4B

[11:57:11.774]收←◆$GPGGA,035710,3958.96517,N,11620.14803,E,1,30,,49.564,M,,M,,*4A

[11:57:12.748]收←◆$GPGGA,035711,3958.96606,N,11620.14848,E,1,30,,49.816,M,,M,,*4F

[11:57:13.776]收←◆$GPGGA,035712,3958.967,N,11620.14895,E,1,31,,49.907,M,,M,,*4B

[11:57:14.785]收←◆$GPGGA,035713,3958.9677,N,11620.14952,E,1,31,,49.827,M,,M,,*74

[11:57:15.764]收←◆$GPGGA,035714,3958.96812,N,11620.15043,E,1,31,,49.741,M,,M,,*4F

[11:57:16.752]收←◆$GPGGA,035715,3958.96827,N,11620.1517,E,1,31,,49.573,M,,M,,*7A

[11:57:17.768]收←◆$GPGGA,035716,3958.96831,N,11620.15313,E,1,31,,49.352,M,,M,,*4C

[11:57:18.769]收←◆$GPGGA,035717,3958.96834,N,11620.15466,E,1,31,,49.296,M,,M,,*44

[11:57:19.809]收←◆$GPGGA,035718,3958.96834,N,11620.15613,E,1,31,,49.358,M,,M,,*48

[11:57:20.776]收←◆$GPGGA,035719,3958.96825,N,11620.15755,E,1,32,,49.081,M,,M,,*4E

[11:57:21.764]收←◆$GPGGA,035720,3958.96807,N,11620.15867,E,1,32,,48.841,M,,M,,*4F

[11:57:22.777]收←◆$GPGGA,035721,3958.96798,N,11620.15982,E,1,32,,48.658,M,,M,,*4B

[11:57:23.782]收←◆$GPGGA,035722,3958.96804,N,11620.16105,E,1,32,,48.484,M,,M,,*45

[11:57:24.783]收←◆$GPGGA,035723,3958.96806,N,11620.16224,E,1,32,,48.494,M,,M,,*47

[11:57:25.803]收←◆$GPGGA,035724,3958.96821,N,11620.16363,E,1,32,,48.309,M,,M,,*44

[11:57:26.788]收←◆$GPGGA,035725,3958.96863,N,11620.1649,E,1,33,,47.757,M,,M,,*79

[11:57:27.788]收←◆$GPGGA,035726,3958.96966,N,11620.16662,E,1,32,,47.895,M,,M,,*41

[11:57:28.796]收←◆$GPGGA,035727,3958.97097,N,11620.16864,E,1,32,,48.606,M,,M,,*45

[11:57:29.777]收←◆$GPGGA,035728,3958.97301,N,11620.17088,E,1,32,,49.924,M,,M,,*43

[11:57:30.793]收←◆$GPGGA,035729,3958.97302,N,11620.17253,E,1,32,,50.834,M,,M,,*4D

[11:57:31.806]收←◆$GPGGA,035730,3958.97335,N,11620.17376,E,1,31,,51.370,M,,M,,*4E

[11:57:32.796]收←◆$GPGGA,035731,3958.97347,N,11620.17488,E,1,30,,52.269,M,,M,,*47

[11:57:33.802]收←◆$GPGGA,035732,3958.97321,N,11620.17591,E,1,30,,52.096,M,,M,,*4F

[11:57:34.835]收←◆$GPGGA,035733,3958.97303,N,11620.17714,E,1,30,,52.020,M,,M,,*4C

[11:57:35.804]收←◆$GPGGA,035734,3958.97314,N,11620.17831,E,1,30,,52.277,M,,M,,*45

[11:57:36.814]收←◆$GPGGA,035735,3958.97339,N,11620.17937,E,1,30,,53.133,M,,M,,*4E

[11:57:37.796]收←◆$GPGGA,035736,3958.97283,N,11620.18121,E,1,30,,53.293,M,,M,,*44

[11:57:38.794]收←◆$GPGGA,035737,3958.97276,N,11620.18277,E,1,30,,53.731,M,,M,,*42

[11:57:39.804]收←◆$GPGGA,035738,3958.97237,N,11620.18543,E,1,30,,53.983,M,,M,,*4F

[11:57:40.795]收←◆$GPGGA,035739,3958.9726,N,11620.18676,E,1,30,,54.965,M,,M,,*76

[11:57:41.852]收←◆$GPGGA,035740,3958.97294,N,11620.18753,E,1,30,,55.531,M,,M,,*49

[11:57:42.811]收←◆$GPGGA,035741,3958.97298,N,11620.18841,E,1,30,,55.259,M,,M,,*41

[11:57:43.821]收←◆$GPGGA,035742,3958.97321,N,11620.18945,E,1,30,,55.391,M,,M,,*41

[11:57:44.802]收←◆$GPGGA,035743,3958.97391,N,11620.19022,E,1,30,,55.631,M,,M,,*4D

[11:57:45.815]收←◆$GPGGA,035744,3958.97477,N,11620.19124,E,1,30,,56.057,M,,M,,*47

[11:57:46.817]收←◆$GPGGA,035745,3958.97531,N,11620.19262,E,1,30,,56.338,M,,M,,*4E

[11:57:47.878]收←◆$GPGGA,035746,3958.97578,N,11620.19388,E,1,30,,56.429,M,,M,,*42

[11:57:48.798]收←◆$GPGGA,035747,3958.97607,N,11620.19562,E,1,30,,56.542,M,,M,,*46

[11:57:49.825]收←◆$GPGGA,035748,3958.97652,N,11620.19703,E,1,30,,56.424,M,,M,,*4D

[11:57:50.818]收←◆$GPGGA,035749,3958.97639,N,11620.19851,E,1,30,,56.099,M,,M,,*4B

[11:57:51.825]收←◆$GPGGA,035750,3958.97666,N,11620.19941,E,1,30,,56.209,M,,M,,*42

[11:57:52.831]收←◆$GPGGA,035751,3958.97661,N,11620.20021,E,1,30,,56.279,M,,M,,*46

[11:57:53.821]收←◆$GPGGA,035752,3958.97641,N,11620.20092,E,1,30,,56.449,M,,M,,*4A

[11:57:54.816]收←◆$GPGGA,035753,3958.97637,N,11620.20162,E,1,30,,56.476,M,,M,,*48

[11:57:55.818]收←◆$GPGGA,035754,3958.97629,N,11620.20268,E,1,29,,56.489,M,,M,,*41

[11:57:56.824]收←◆$GPGGA,035755,3958.97555,N,11620.20383,E,1,29,,56.179,M,,M,,*46

[11:57:57.835]收←◆$GPGGA,035756,3958.97587,N,11620.20526,E,1,29,,55.716,M,,M,,*4F

[11:57:58.822]收←◆$GPGGA,035757,3958.97586,N,11620.20609,E,1,29,,55.009,M,,M,,*48

[11:57:59.834]收←◆$GPGGA,035758,3958.97564,N,11620.20667,E,1,30,,54.793,M,,M,,*4E

[11:58:00.828]收←◆$GPGGA,035759,3958.97498,N,11620.20729,E,1,30,,54.613,M,,M,,*4F

[11:58:01.845]收←◆$GPGGA,035800,3958.97459,N,11620.20862,E,1,30,,54.282,M,,M,,*4D

[11:58:02.856]收←◆$GPGGA,035801,3958.97477,N,11620.21002,E,1,30,,54.016,M,,M,,*40

[11:58:03.850]收←◆$GPGGA,035802,3958.97484,N,11620.21115,E,1,30,,53.973,M,,M,,*45

[11:58:04.827]收←◆$GPGGA,035803,3958.97506,N,11620.21246,E,1,30,,53.716,M,,M,,*47

[11:58:05.841]收←◆$GPGGA,035804,3958.97573,N,11620.21386,E,1,31,,53.814,M,,M,,*43

[11:58:06.853]收←◆$GPGGA,035805,3958.97567,N,11620.21559,E,1,31,,54.109,M,,M,,*41

[11:58:07.830]收←◆$GPGGA,035806,3958.97634,N,11620.21726,E,1,31,,54.763,M,,M,,*47

[11:58:08.851]收←◆$GPGGA,035807,3958.97672,N,11620.21881,E,1,31,,55.315,M,,M,,*42

[11:58:09.853]收←◆$GPGGA,035808,3958.97665,N,11620.21997,E,1,31,,55.132,M,,M,,*4A

[11:58:10.863]收←◆$GPGGA,035809,3958.97666,N,11620.22098,E,1,31,,55.130,M,,M,,*4F

[11:58:11.864]收←◆$GPGGA,035810,3958.97656,N,11620.222,E,1,31,,55.088,M,,M,,*45

[11:58:12.846]收←◆$GPGGA,035811,3958.97644,N,11620.22302,E,1,32,,55.070,M,,M,,*40

[11:58:13.841]收←◆$GPGGA,035812,3958.97622,N,11620.22405,E,1,32,,55.049,M,,M,,*49

[11:58:14.860]收←◆$GPGGA,035813,3958.9759,N,11620.22496,E,1,32,,55.011,M,,M,,*75

[11:58:15.848]收←◆$GPGGA,035814,3958.97436,N,11620.225,E,1,32,,55.105,M,,M,,*45

[11:58:16.873]收←◆$GPGGA,035815,3958.9742,N,11620.22583,E,1,32,,55.080,M,,M,,*74

[11:58:17.862]收←◆$GPGGA,035816,3958.97432,N,11620.22673,E,1,33,,55.124,M,,M,,*46

[11:58:18.920]收←◆$GPGGA,035817,3958.97444,N,11620.22752,E,1,32,,55.192,M,,M,,*48

[11:58:19.891]收←◆$GPGGA,035818,3958.97457,N,11620.22837,E,1,33,,55.262,M,,M,,*44

[11:58:20.853]收←◆$GPGGA,035819,3958.97464,N,11620.22959,E,1,33,,55.227,M,,M,,*4D

[11:58:21.893]收←◆$GPGGA,035820,3958.97446,N,11620.23088,E,1,33,,55.107,M,,M,,*42

[11:58:22.913]收←◆$GPGGA,035821,3958.97448,N,11620.2325,E,1,33,,54.983,M,,M,,*7F

[11:58:23.915]收←◆$GPGGA,035822,3958.9749,N,11620.23489,E,1,33,,55.042,M,,M,,*7E

[11:58:24.906]收←◆$GPGGA,035823,3958.97534,N,11620.23693,E,1,33,,55.192,M,,M,,*45

[11:58:25.876]收←◆$GPGGA,035824,3958.9757,N,11620.23852,E,1,33,,55.319,M,,M,,*70

[11:58:26.884]收←◆$GPGGA,035825,3958.97615,N,11620.24008,E,1,32,,55.652,M,,M,,*4A

[11:58:27.874]收←◆$GPGGA,035826,3958.97637,N,11620.24127,E,1,32,,55.489,M,,M,,*41

[11:58:28.906]收←◆$GPGGA,035828,3958.97704,N,11620.24373,E,1,32,,55.670,M,,M,,*49

[11:58:29.865]收←◆$GPGGA,035829,3958.97736,N,11620.24473,E,1,32,,55.883,M,,M,,*4C

[11:58:30.914]收←◆$GPGGA,035829,3958.97736,N,11620.24473,E,1,32,,55.883,M,,M,,*4C

[11:58:31.881]收←◆$GPGGA,035830,3958.97764,N,11620.24591,E,1,33,,56.099,M,,M,,*4F

[11:58:32.917]收←◆$GPGGA,035832,3958.97814,N,11620.24885,E,1,32,,55.447,M,,M,,*48

[11:58:33.953]收←◆$GPGGA,035833,3958.97961,N,11620.25184,E,1,32,,57.040,M,,M,,*42

[11:58:34.905]收←◆$GPGGA,035834,3958.97946,N,11620.25308,E,1,31,,56.965,M,,M,,*4A

[11:58:35.904]收←◆$GPGGA,035835,3958.97938,N,11620.254,E,1,31,,57.073,M,,M,,*42

[11:58:36.894]收←◆$GPGGA,035836,3958.97941,N,11620.25482,E,1,31,,57.115,M,,M,,*44

[11:58:37.913]收←◆$GPGGA,035837,3958.97926,N,11620.25536,E,1,31,,56.927,M,,M,,*42

[11:58:38.930]收←◆$GPGGA,035838,3958.97908,N,11620.25631,E,1,33,,56.917,M,,M,,*44

[11:58:39.929]收←◆$GPGGA,035839,3958.97899,N,11620.25745,E,1,33,,56.949,M,,M,,*45

[11:58:40.943]收←◆$GPGGA,035840,3958.97895,N,11620.25863,E,1,33,,57.065,M,,M,,*4A

[11:58:41.935]收←◆$GPGGA,035841,3958.97845,N,11620.26003,E,1,33,,57.520,M,,M,,*4F

[11:58:42.902]收←◆$GPGGA,035842,3958.97775,N,11620.25949,E,1,33,,56.319,M,,M,,*49

[11:58:43.891]收←◆$GPGGA,035843,3958.97761,N,11620.26024,E,1,32,,56.174,M,,M,,*44

[11:58:44.889]收←◆$GPGGA,035844,3958.9776,N,11620.2616,E,1,31,,56.591,M,,M,,*4F

[11:58:45.970]收←◆$GPGGA,035844,3958.9776,N,11620.2616,E,1,31,,56.591,M,,M,,*4F

[11:58:46.944]收←◆$GPGGA,035846,3958.97802,N,11620.2646,E,1,30,,58.243,M,,M,,*74

[11:58:47.944]收←◆$GPGGA,035847,3958.97792,N,11620.26568,E,1,30,,58.341,M,,M,,*49

[11:58:48.965]收←◆$GPGGA,035848,3958.97778,N,11620.26668,E,1,31,,58.432,M,,M,,*43

[11:58:49.902]收←◆$GPGGA,035849,3958.97738,N,11620.26761,E,1,31,,58.374,M,,M,,*4B
