
[17:46:20.073]收←◆$GPGGA,094612,3958.90905,N,11620.47161,E,1,33,,27.701,M,,M,,*4A

[17:46:21.113]收←◆$GPGGA,094612,3958.90905,N,11620.47161,E,1,33,,27.701,M,,M,,*4A

[17:46:22.059]收←◆$GPGGA,094612,3958.90905,N,11620.47161,E,1,33,,27.701,M,,M,,*4A

[17:46:23.065]收←◆$GPGGA,094612,3958.90905,N,11620.47161,E,1,33,,27.701,M,,M,,*4A

[17:46:24.078]收←◆$GPGGA,094612,3958.90905,N,11620.47161,E,1,33,,27.701,M,,M,,*4A

[17:46:25.072]收←◆$GPGGA,094612,3958.90905,N,11620.47161,E,1,33,,27.701,M,,M,,*4A

[17:46:26.118]收←◆$GPGGA,094612,3958.90905,N,11620.47161,E,1,33,,27.701,M,,M,,*4A

[17:46:27.078]收←◆$GPGGA,094626,3958.91943,N,11620.472,E,1,30,,23.984,M,,M,,*4E

[17:46:28.095]收←◆$GPGGA,094627,3958.90695,N,11620.473,E,1,33,,21.654,M,,M,,*48

[17:46:29.070]收←◆$GPGGA,094628,3958.90813,N,11620.47401,E,1,33,,23.573,M,,M,,*45

[17:46:30.120]收←◆$GPGGA,094628,3958.90813,N,11620.47401,E,1,33,,23.573,M,,M,,*45

[17:46:31.116]收←◆$GPGGA,094630,3958.9117,N,11620.47484,E,1,33,,47.785,M,,M,,*75

[17:46:32.161]收←◆$GPGGA,094631,3958.91316,N,11620.47721,E,1,33,,50.130,M,,M,,*44

[17:46:33.074]收←◆$GPGGA,094632,3958.91342,N,11620.47834,E,1,33,,51.058,M,,M,,*43

[17:46:34.096]收←◆$GPGGA,094633,3958.91394,N,11620.4794,E,1,33,,50.279,M,,M,,*7B

[17:46:35.125]收←◆$GPGGA,094634,3958.91425,N,11620.48048,E,1,33,,48.436,M,,M,,*4B

[17:46:36.134]收←◆$GPGGA,094635,3958.91416,N,11620.48164,E,1,35,,46.318,M,,M,,*46

[17:46:37.175]收←◆$GPGGA,094636,3958.91421,N,11620.48295,E,1,36,,45.320,M,,M,,*47

[17:46:38.140]收←◆$GPGGA,094637,3958.91446,N,11620.48392,E,1,37,,45.296,M,,M,,*4C

[17:46:39.132]收←◆$GPGGA,094638,3958.9147,N,11620.48495,E,1,37,,45.191,M,,M,,*72

[17:46:40.153]收←◆$GPGGA,094639,3958.91491,N,11620.48606,E,1,37,,44.791,M,,M,,*43

[17:46:41.112]收←◆$GPGGA,094640,3958.91509,N,11620.4872,E,1,37,,44.584,M,,M,,*7E

[17:46:42.137]收←◆$GPGGA,094641,3958.91542,N,11620.48837,E,1,37,,44.215,M,,M,,*46

[17:46:43.138]收←◆$GPGGA,094642,3958.91576,N,11620.48941,E,1,35,,43.540,M,,M,,*40

[17:46:44.119]收←◆$GPGGA,094643,3958.91604,N,11620.49051,E,1,35,,42.334,M,,M,,*4A

[17:46:45.151]收←◆$GPGGA,094644,3958.91625,N,11620.49169,E,1,35,,41.616,M,,M,,*42

[17:46:46.144]收←◆$GPGGA,094645,3958.91641,N,11620.49284,E,1,35,,40.934,M,,M,,*4F

[17:46:47.152]收←◆$GPGGA,094646,3958.91652,N,11620.49383,E,1,35,,40.654,M,,M,,*41

[17:46:48.116]收←◆$GPGGA,094647,3958.91677,N,11620.49493,E,1,35,,40.399,M,,M,,*45

[17:46:49.147]收←◆$GPGGA,094648,3958.91649,N,11620.49588,E,1,35,,40.853,M,,M,,*41

[17:46:50.163]收←◆$GPGGA,094649,3958.91695,N,11620.49706,E,1,36,,41.520,M,,M,,*4E

[17:46:51.151]收←◆$GPGGA,094650,3958.9171,N,11620.49794,E,1,36,,41.237,M,,M,,*70

[17:46:52.113]收←◆$GPGGA,094651,3958.91736,N,11620.49864,E,1,36,,40.507,M,,M,,*40

[17:46:53.121]收←◆$GPGGA,094652,3958.91762,N,11620.49946,E,1,36,,39.687,M,,M,,*46

[17:46:54.158]收←◆$GPGGA,094653,3958.91798,N,11620.50027,E,1,36,,38.883,M,,M,,*4F

[17:46:55.170]收←◆$GPGGA,094654,3958.91825,N,11620.50106,E,1,36,,38.099,M,,M,,*40

[17:46:56.128]收←◆$GPGGA,094655,3958.91846,N,11620.50156,E,1,36,,38.239,M,,M,,*49

[17:46:57.124]收←◆$GPGGA,094656,3958.91878,N,11620.50218,E,1,36,,38.051,M,,M,,*42

[17:46:58.121]收←◆$GPGGA,094657,3958.91915,N,11620.50261,E,1,36,,37.675,M,,M,,*48

[17:46:59.122]收←◆$GPGGA,094658,3958.91959,N,11620.5029,E,1,36,,37.523,M,,M,,*71

[17:47:00.135]收←◆$GPGGA,094659,3958.91994,N,11620.50306,E,1,36,,37.052,M,,M,,*4C

[17:47:01.171]收←◆$GPGGA,094700,3958.92022,N,11620.50305,E,1,35,,36.961,M,,M,,*4E

[17:47:02.180]收←◆$GPGGA,094701,3958.92041,N,11620.50349,E,1,35,,36.951,M,,M,,*41

[17:47:03.173]收←◆$GPGGA,094702,3958.92057,N,11620.50394,E,1,35,,36.519,M,,M,,*45

[17:47:04.154]收←◆$GPGGA,094703,3958.92098,N,11620.50431,E,1,36,,36.202,M,,M,,*41

[17:47:05.201]收←◆$GPGGA,094704,3958.9217,N,11620.50437,E,1,38,,36.022,M,,M,,*79

[17:47:06.149]收←◆$GPGGA,094705,3958.92247,N,11620.5043,E,1,38,,35.668,M,,M,,*73

[17:47:07.138]收←◆$GPGGA,094706,3958.92326,N,11620.50398,E,1,38,,35.603,M,,M,,*4E

[17:47:08.182]收←◆$GPGGA,094707,3958.92407,N,11620.50369,E,1,38,,35.641,M,,M,,*43

[17:47:09.200]收←◆$GPGGA,094708,3958.92471,N,11620.50342,E,1,38,,35.761,M,,M,,*47

[17:47:10.194]收←◆$GPGGA,094709,3958.92508,N,11620.50334,E,1,38,,35.498,M,,M,,*4D

[17:47:11.156]收←◆$GPGGA,094711,3958.92599,N,11620.50283,E,1,37,,35.049,M,,M,,*46

[17:47:12.219]收←◆$GPGGA,094711,3958.92599,N,11620.50283,E,1,37,,35.049,M,,M,,*46

[17:47:13.148]收←◆$GPGGA,094712,3958.92645,N,11620.50264,E,1,36,,34.938,M,,M,,*41

[17:47:14.202]收←◆$GPGGA,094713,3958.92699,N,11620.50236,E,1,36,,34.774,M,,M,,*40

[17:47:15.216]收←◆$GPGGA,094715,3958.92887,N,11620.50198,E,1,36,,34.788,M,,M,,*43

[17:47:16.203]收←◆$GPGGA,094716,3958.92983,N,11620.50178,E,1,37,,34.615,M,,M,,*4F

[17:47:17.198]收←◆$GPGGA,094717,3958.92993,N,11620.50145,E,1,37,,35.014,M,,M,,*47

[17:47:18.220]收←◆$GPGGA,094718,3958.92959,N,11620.50128,E,1,37,,35.008,M,,M,,*48

[17:47:19.179]收←◆$GPGGA,094719,3958.92892,N,11620.50135,E,1,37,,35.254,M,,M,,*48

[17:47:20.180]收←◆$GPGGA,094720,3958.9281,N,11620.50144,E,1,37,,34.988,M,,M,,*75

[17:47:21.162]收←◆$GPGGA,094720,3958.9281,N,11620.50144,E,1,37,,34.988,M,,M,,*75

[17:47:22.163]收←◆$GPGGA,094722,3958.92574,N,11620.50211,E,1,37,,34.380,M,,M,,*49

[17:47:23.217]收←◆$GPGGA,094723,3958.92495,N,11620.5027,E,1,37,,33.786,M,,M,,*74

[17:47:24.223]收←◆$GPGGA,094724,3958.9243,N,11620.50324,E,1,37,,33.214,M,,M,,*72

[17:47:25.225]收←◆$GPGGA,094725,3958.92346,N,11620.50405,E,1,37,,32.438,M,,M,,*48

[17:47:26.226]收←◆$GPGGA,094726,3958.92282,N,11620.50476,E,1,37,,31.879,M,,M,,*4C

[17:47:27.228]收←◆$GPGGA,094727,3958.92201,N,11620.50514,E,1,37,,32.548,M,,M,,*4F

[17:47:28.248]收←◆$GPGGA,094728,3958.92114,N,11620.50552,E,1,37,,33.397,M,,M,,*40

[17:47:29.188]收←◆$GPGGA,094729,3958.91916,N,11620.50745,E,1,37,,38.452,M,,M,,*49

[17:47:30.276]收←◆$GPGGA,094730,3958.91843,N,11620.50749,E,1,37,,38.528,M,,M,,*40

[17:47:31.220]收←◆$GPGGA,094731,3958.91777,N,11620.5078,E,1,37,,38.521,M,,M,,*75

[17:47:32.224]收←◆$GPGGA,094732,3958.91711,N,11620.50807,E,1,37,,38.336,M,,M,,*46

[17:47:33.217]收←◆$GPGGA,094733,3958.91636,N,11620.50823,E,1,37,,38.166,M,,M,,*42

[17:47:34.189]收←◆$GPGGA,094734,3958.91554,N,11620.50832,E,1,37,,38.046,M,,M,,*41

[17:47:35.241]收←◆$GPGGA,094735,3958.91469,N,11620.50835,E,1,37,,38.085,M,,M,,*47

[17:47:36.205]收←◆$GPGGA,094736,3958.91377,N,11620.50846,E,1,37,,38.293,M,,M,,*4D

[17:47:37.193]收←◆$GPGGA,094737,3958.91289,N,11620.50882,E,1,37,,38.223,M,,M,,*4F

[17:47:38.283]收←◆$GPGGA,094738,3958.91192,N,11620.50923,E,1,37,,38.182,M,,M,,*4B

[17:47:39.197]收←◆$GPGGA,094738,3958.91192,N,11620.50923,E,1,37,,38.182,M,,M,,*4B

[17:47:40.205]收←◆$GPGGA,094740,3958.91011,N,11620.50968,E,1,37,,38.353,M,,M,,*4F

[17:47:41.240]收←◆$GPGGA,094741,3958.90907,N,11620.50973,E,1,37,,38.775,M,,M,,*4B

[17:47:42.199]收←◆$GPGGA,094742,3958.90806,N,11620.50973,E,1,37,,39.048,M,,M,,*40

[17:47:43.255]收←◆$GPGGA,094743,3958.90716,N,11620.50951,E,1,37,,39.025,M,,M,,*44

[17:47:44.244]收←◆$GPGGA,094744,3958.90635,N,11620.5092,E,1,37,,39.058,M,,M,,*7F

[17:47:45.209]收←◆$GPGGA,094745,3958.9054,N,11620.50873,E,1,37,,38.880,M,,M,,*74

[17:47:46.242]收←◆$GPGGA,094746,3958.90468,N,11620.50847,E,1,37,,38.734,M,,M,,*4B

[17:47:47.235]收←◆$GPGGA,094747,3958.90393,N,11620.50825,E,1,36,,38.602,M,,M,,*48

[17:47:48.210]收←◆$GPGGA,094748,3958.9031,N,11620.50792,E,1,36,,38.577,M,,M,,*7E

[17:47:49.249]收←◆$GPGGA,094749,3958.90233,N,11620.50751,E,1,36,,38.686,M,,M,,*4D

[17:47:50.248]收←◆$GPGGA,094750,3958.90171,N,11620.50744,E,1,36,,39.069,M,,M,,*42

[17:47:51.249]收←◆$GPGGA,094751,3958.90101,N,11620.50741,E,1,36,,39.113,M,,M,,*4D

[17:47:52.218]收←◆$GPGGA,094752,3958.90041,N,11620.50747,E,1,36,,39.200,M,,M,,*4C

[17:47:53.251]收←◆$GPGGA,094753,3958.89918,N,11620.50745,E,1,36,,38.078,M,,M,,*4E

[17:47:54.215]收←◆$GPGGA,094754,3958.89859,N,11620.5081,E,1,36,,38.316,M,,M,,*79

[17:47:55.216]收←◆$GPGGA,094755,3958.89728,N,11620.50926,E,1,36,,38.200,M,,M,,*43

[17:47:56.256]收←◆$GPGGA,094756,3958.8965,N,11620.50949,E,1,36,,38.764,M,,M,,*70

[17:47:57.225]收←◆$GPGGA,094756,3958.8965,N,11620.50949,E,1,36,,38.764,M,,M,,*70

[17:47:58.266]收←◆$GPGGA,094758,3958.89418,N,11620.51063,E,1,36,,41.432,M,,M,,*4E

[17:47:59.259]收←◆$GPGGA,094759,3958.89335,N,11620.51116,E,1,36,,41.211,M,,M,,*43

[17:48:00.285]收←◆$GPGGA,094800,3958.89264,N,11620.51135,E,1,36,,41.282,M,,M,,*4E

[17:48:01.230]收←◆$GPGGA,094801,3958.89191,N,11620.51155,E,1,36,,41.466,M,,M,,*4C

[17:48:02.236]收←◆$GPGGA,094802,3958.89118,N,11620.51165,E,1,36,,41.584,M,,M,,*40

[17:48:03.235]收←◆$GPGGA,094803,3958.89051,N,11620.51156,E,1,36,,41.533,M,,M,,*41

[17:48:04.269]收←◆$GPGGA,094804,3958.88983,N,11620.51138,E,1,35,,41.794,M,,M,,*45

[17:48:05.259]收←◆$GPGGA,094805,3958.88902,N,11620.51112,E,1,36,,41.811,M,,M,,*44

[17:48:06.236]收←◆$GPGGA,094806,3958.88817,N,11620.5108,E,1,36,,41.935,M,,M,,*7F

[17:48:07.225]收←◆$GPGGA,094807,3958.88732,N,11620.51068,E,1,36,,41.934,M,,M,,*41

[17:48:08.248]收←◆$GPGGA,094808,3958.88679,N,11620.51067,E,1,36,,41.945,M,,M,,*49

[17:48:09.234]收←◆$GPGGA,094809,3958.88618,N,11620.51058,E,1,37,,42.039,M,,M,,*43

[17:48:10.234]收←◆$GPGGA,094810,3958.88544,N,11620.51068,E,1,37,,42.217,M,,M,,*4C

[17:48:11.290]收←◆$GPGGA,094811,3958.88464,N,11620.51058,E,1,37,,42.342,M,,M,,*4C

[17:48:12.289]收←◆$GPGGA,094812,3958.88385,N,11620.51046,E,1,38,,42.525,M,,M,,*40

[17:48:13.270]收←◆$GPGGA,094813,3958.88289,N,11620.51001,E,1,38,,42.745,M,,M,,*4B

[17:48:14.296]收←◆$GPGGA,094814,3958.8822,N,11620.5099,E,1,38,,42.937,M,,M,,*44

[17:48:15.237]收←◆$GPGGA,094814,3958.8822,N,11620.5099,E,1,38,,42.937,M,,M,,*44

[17:48:16.288]收←◆$GPGGA,094816,3958.88084,N,11620.50987,E,1,38,,43.054,M,,M,,*41

[17:48:17.238]收←◆$GPGGA,094817,3958.88025,N,11620.50997,E,1,38,,43.053,M,,M,,*4D

[17:48:18.243]收←◆$GPGGA,094818,3958.87982,N,11620.51007,E,1,38,,42.831,M,,M,,*45

[17:48:19.305]收←◆$GPGGA,094819,3958.8791,N,11620.50992,E,1,37,,42.587,M,,M,,*74

[17:48:20.275]收←◆$GPGGA,094820,3958.8782,N,11620.50976,E,1,37,,42.453,M,,M,,*7E

[17:48:21.287]收←◆$GPGGA,094821,3958.87739,N,11620.50985,E,1,37,,42.357,M,,M,,*47

[17:48:22.253]收←◆$GPGGA,094822,3958.8766,N,11620.5098,E,1,37,,42.370,M,,M,,*49

[17:48:23.289]收←◆$GPGGA,094823,3958.87581,N,11620.50968,E,1,37,,42.225,M,,M,,*43

[17:48:24.249]收←◆$GPGGA,094824,3958.87505,N,11620.50956,E,1,37,,42.246,M,,M,,*40

[17:48:25.265]收←◆$GPGGA,094825,3958.87436,N,11620.50977,E,1,38,,42.381,M,,M,,*46

[17:48:26.248]收←◆$GPGGA,094826,3958.87361,N,11620.51003,E,1,38,,42.401,M,,M,,*44

[17:48:27.260]收←◆$GPGGA,094827,3958.87269,N,11620.5101,E,1,38,,42.420,M,,M,,*7D

[17:48:28.251]收←◆$GPGGA,094828,3958.87174,N,11620.51001,E,1,38,,42.412,M,,M,,*4C

[17:48:29.313]收←◆$GPGGA,094829,3958.8708,N,11620.50991,E,1,38,,42.107,M,,M,,*77

[17:48:30.261]收←◆$GPGGA,094830,3958.86986,N,11620.50983,E,1,38,,41.923,M,,M,,*4F

[17:48:31.280]收←◆$GPGGA,094831,3958.86902,N,11620.50982,E,1,37,,41.649,M,,M,,*4F

[17:48:32.305]收←◆$GPGGA,094832,3958.86816,N,11620.50973,E,1,37,,41.442,M,,M,,*4F

[17:48:33.299]收←◆$GPGGA,094832,3958.86816,N,11620.50973,E,1,37,,41.442,M,,M,,*4F

[17:48:34.308]收←◆$GPGGA,094834,3958.86612,N,11620.50973,E,1,37,,40.986,M,,M,,*47

[17:48:35.265]收←◆$GPGGA,094835,3958.86514,N,11620.50981,E,1,36,,40.843,M,,M,,*47

[17:48:36.319]收←◆$GPGGA,094836,3958.86431,N,11620.50995,E,1,36,,40.467,M,,M,,*4D

[17:48:37.277]收←◆$GPGGA,094837,3958.86342,N,11620.50999,E,1,36,,40.336,M,,M,,*40

[17:48:38.275]收←◆$GPGGA,094838,3958.86272,N,11620.51015,E,1,36,,40.382,M,,M,,*4E

[17:48:39.314]收←◆$GPGGA,094839,3958.86177,N,11620.51029,E,1,35,,40.310,M,,M,,*4E

[17:48:40.285]收←◆$GPGGA,094840,3958.86085,N,11620.5102,E,1,35,,40.322,M,,M,,*74

[17:48:41.275]收←◆$GPGGA,094841,3958.86002,N,11620.5102,E,1,35,,40.557,M,,M,,*7E

[17:48:42.323]收←◆$GPGGA,094842,3958.85942,N,11620.51032,E,1,35,,40.516,M,,M,,*45

[17:48:43.275]收←◆$GPGGA,094843,3958.85876,N,11620.51029,E,1,35,,40.478,M,,M,,*41

[17:48:44.289]收←◆$GPGGA,094844,3958.85799,N,11620.51038,E,1,35,,40.862,M,,M,,*4F

[17:48:45.284]收←◆$GPGGA,094845,3958.8577,N,11620.51071,E,1,35,,40.761,M,,M,,*78

[17:48:46.344]收←◆$GPGGA,094846,3958.8572,N,11620.51086,E,1,36,,40.874,M,,M,,*7E

[17:48:47.324]收←◆$GPGGA,094847,3958.85657,N,11620.51086,E,1,36,,41.179,M,,M,,*4B

[17:48:48.297]收←◆$GPGGA,094848,3958.85578,N,11620.51101,E,1,36,,41.769,M,,M,,*43

[17:48:49.375]收←◆$GPGGA,094849,3958.85475,N,11620.51097,E,1,36,,42.340,M,,M,,*4C

[17:48:50.292]收←◆$GPGGA,094850,3958.85375,N,11620.51084,E,1,36,,42.102,M,,M,,*45

[17:48:51.330]收←◆$GPGGA,094850,3958.85375,N,11620.51084,E,1,36,,42.102,M,,M,,*45

[17:48:52.340]收←◆$GPGGA,094852,3958.85175,N,11620.51099,E,1,36,,41.981,M,,M,,*49

[17:48:53.299]收←◆$GPGGA,094853,3958.85113,N,11620.51156,E,1,35,,42.452,M,,M,,*49

[17:48:54.292]收←◆$GPGGA,094854,3958.85038,N,11620.51087,E,1,35,,41.942,M,,M,,*44

[17:48:55.336]收←◆$GPGGA,094855,3958.85002,N,11620.51087,E,1,35,,41.828,M,,M,,*41
