
[13:15:26.629]收←◆$GPGGA,051517,3958.82915,N,11620.34168,E,1,28,,39.549,M,,M,,*41

[13:15:27.577]收←◆$GPGGA,051517,3958.82915,N,11620.34168,E,1,28,,39.549,M,,M,,*41

[13:15:28.551]收←◆$GPGGA,051517,3958.82915,N,11620.34168,E,1,28,,39.549,M,,M,,*41

[13:15:29.595]收←◆$GPGGA,051517,3958.82915,N,11620.34168,E,1,28,,39.549,M,,M,,*41

[13:15:30.605]收←◆$GPGGA,051517,3958.82915,N,11620.34168,E,1,28,,39.549,M,,M,,*41

[13:15:31.563]收←◆$GPGGA,051517,3958.82915,N,11620.34168,E,1,28,,39.549,M,,M,,*41

[13:15:32.608]收←◆$GPGGA,051517,3958.82915,N,11620.34168,E,1,28,,39.549,M,,M,,*41

[13:15:33.604]收←◆$GPGGA,051517,3958.82915,N,11620.34168,E,1,28,,39.549,M,,M,,*41

[13:15:34.554]收←◆$GPGGA,051517,3958.82915,N,11620.34168,E,1,28,,39.549,M,,M,,*41

[13:15:35.564]收←◆$GPGGA,051517,3958.82915,N,11620.34168,E,1,28,,39.549,M,,M,,*41

[13:15:36.588]收←◆$GPGGA,051517,3958.82915,N,11620.34168,E,1,28,,39.549,M,,M,,*41

[13:15:37.566]收←◆$GPGGA,051517,3958.82915,N,11620.34168,E,1,28,,39.549,M,,M,,*41

[13:15:38.608]收←◆$GPGGA,051517,3958.82915,N,11620.34168,E,1,28,,39.549,M,,M,,*41

[13:15:39.590]收←◆$GPGGA,051517,3958.82915,N,11620.34168,E,1,28,,39.549,M,,M,,*41

[13:15:40.598]收←◆$GPGGA,051517,3958.82915,N,11620.34168,E,1,28,,39.549,M,,M,,*41

[13:15:41.608]收←◆$GPGGA,051540,3958.81868,N,11620.34898,E,1,27,,44.437,M,,M,,*40

[13:15:42.564]收←◆$GPGGA,051541,3958.81949,N,11620.35444,E,1,28,,65.962,M,,M,,*4E

[13:15:43.617]收←◆$GPGGA,051542,3958.81722,N,11620.35328,E,1,28,,59.030,M,,M,,*42

[13:15:44.561]收←◆$GPGGA,051544,3958.82042,N,11620.35837,E,1,29,,66.116,M,,M,,*4B

[13:15:45.645]收←◆$GPGGA,051545,3958.82585,N,11620.35618,E,1,29,,62.387,M,,M,,*49

[13:15:46.608]收←◆$GPGGA,051546,3958.82655,N,11620.35691,E,1,31,,60.130,M,,M,,*40

[13:15:47.558]收←◆$GPGGA,051547,3958.82713,N,11620.35732,E,1,32,,59.126,M,,M,,*44

[13:15:48.565]收←◆$GPGGA,051548,3958.82699,N,11620.3576,E,1,33,,61.046,M,,M,,*72

[13:15:49.614]收←◆$GPGGA,051549,3958.82705,N,11620.35855,E,1,33,,60.684,M,,M,,*47

[13:15:50.617]收←◆$GPGGA,051550,3958.82697,N,11620.35907,E,1,33,,60.356,M,,M,,*49

[13:15:51.631]收←◆$GPGGA,051551,3958.82586,N,11620.36041,E,1,33,,64.869,M,,M,,*40

[13:15:52.617]收←◆$GPGGA,051552,3958.82583,N,11620.36212,E,1,33,,65.245,M,,M,,*47

[13:15:53.624]收←◆$GPGGA,051553,3958.8263,N,11620.36403,E,1,33,,63.273,M,,M,,*78

[13:15:54.630]收←◆$GPGGA,051554,3958.82656,N,11620.36595,E,1,30,,61.177,M,,M,,*47

[13:15:55.593]收←◆$GPGGA,051555,3958.8267,N,11620.36772,E,1,30,,60.175,M,,M,,*7A

[13:15:56.585]收←◆$GPGGA,051556,3958.82654,N,11620.36908,E,1,30,,59.805,M,,M,,*48

[13:15:57.595]收←◆$GPGGA,051557,3958.82633,N,11620.37068,E,1,30,,60.081,M,,M,,*48

[13:15:58.610]收←◆$GPGGA,051558,3958.82634,N,11620.37206,E,1,30,,60.241,M,,M,,*44

[13:15:59.627]收←◆$GPGGA,051559,3958.82631,N,11620.3728,E,1,30,,60.380,M,,M,,*72

[13:16:00.600]收←◆$GPGGA,051600,3958.82556,N,11620.37345,E,1,30,,65.644,M,,M,,*4F

[13:16:01.616]收←◆$GPGGA,051601,3958.82559,N,11620.37447,E,1,33,,65.822,M,,M,,*49

[13:16:02.647]收←◆$GPGGA,051602,3958.82556,N,11620.37547,E,1,33,,65.909,M,,M,,*4C

[13:16:03.597]收←◆$GPGGA,051603,3958.82544,N,11620.37663,E,1,34,,65.455,M,,M,,*48

[13:16:04.600]收←◆$GPGGA,051604,3958.8262,N,11620.37831,E,1,34,,65.676,M,,M,,*74

[13:16:05.600]收←◆$GPGGA,051605,3958.82637,N,11620.37989,E,1,34,,65.646,M,,M,,*42

[13:16:06.640]收←◆$GPGGA,051606,3958.82639,N,11620.38074,E,1,34,,65.697,M,,M,,*47

[13:16:07.614]收←◆$GPGGA,051607,3958.82672,N,11620.38167,E,1,34,,65.678,M,,M,,*4B

[13:16:08.641]收←◆$GPGGA,051608,3958.82679,N,11620.38254,E,1,33,,65.896,M,,M,,*45

[13:16:09.614]收←◆$GPGGA,051608,3958.82679,N,11620.38254,E,1,33,,65.896,M,,M,,*45

[13:16:10.643]收←◆$GPGGA,051610,3958.82715,N,11620.38433,E,1,33,,66.501,M,,M,,*40

[13:16:11.652]收←◆$GPGGA,051611,3958.82716,N,11620.38535,E,1,33,,66.937,M,,M,,*4C

[13:16:12.609]收←◆$GPGGA,051612,3958.82731,N,11620.38671,E,1,33,,67.185,M,,M,,*49

[13:16:13.663]收←◆$GPGGA,051613,3958.8274,N,11620.38787,E,1,33,,67.139,M,,M,,*71

[13:16:14.617]收←◆$GPGGA,051614,3958.82744,N,11620.38879,E,1,33,,67.581,M,,M,,*4B

[13:16:15.653]收←◆$GPGGA,051615,3958.82758,N,11620.38917,E,1,33,,67.633,M,,M,,*44

[13:16:16.698]收←◆$GPGGA,051616,3958.82773,N,11620.38945,E,1,33,,67.486,M,,M,,*45

[13:16:17.655]收←◆$GPGGA,051617,3958.82854,N,11620.38948,E,1,33,,67.712,M,,M,,*4D

[13:16:18.669]收←◆$GPGGA,051618,3958.82908,N,11620.38945,E,1,33,,67.385,M,,M,,*4D

[13:16:19.635]收←◆$GPGGA,051619,3958.82973,N,11620.38942,E,1,33,,66.875,M,,M,,*42

[13:16:20.663]收←◆$GPGGA,051620,3958.83038,N,11620.3894,E,1,33,,66.404,M,,M,,*77

[13:16:21.668]收←◆$GPGGA,051621,3958.83061,N,11620.38983,E,1,34,,65.328,M,,M,,*48

[13:16:22.622]收←◆$GPGGA,051622,3958.83087,N,11620.39041,E,1,34,,64.550,M,,M,,*4D

[13:16:23.666]收←◆$GPGGA,051623,3958.83098,N,11620.39126,E,1,34,,63.555,M,,M,,*40

[13:16:24.678]收←◆$GPGGA,051624,3958.83154,N,11620.39136,E,1,34,,63.527,M,,M,,*42

[13:16:25.679]收←◆$GPGGA,051625,3958.83202,N,11620.39173,E,1,34,,62.939,M,,M,,*40

[13:16:26.677]收←◆$GPGGA,051626,3958.83262,N,11620.39213,E,1,35,,62.129,M,,M,,*48

[13:16:27.676]收←◆$GPGGA,051626,3958.83262,N,11620.39213,E,1,35,,62.129,M,,M,,*48

[13:16:28.642]收←◆$GPGGA,051628,3958.83349,N,11620.39259,E,1,34,,61.486,M,,M,,*42

[13:16:29.675]收←◆$GPGGA,051629,3958.83433,N,11620.3924,E,1,34,,60.848,M,,M,,*7E

[13:16:30.690]收←◆$GPGGA,051630,3958.83519,N,11620.39209,E,1,34,,60.140,M,,M,,*43

[13:16:31.748]收←◆$GPGGA,051631,3958.83611,N,11620.39163,E,1,33,,59.183,M,,M,,*44

[13:16:32.683]收←◆$GPGGA,051632,3958.83675,N,11620.39182,E,1,32,,58.266,M,,M,,*42

[13:16:33.682]收←◆$GPGGA,051633,3958.83741,N,11620.39206,E,1,32,,57.443,M,,M,,*44

[13:16:34.707]收←◆$GPGGA,051634,3958.83827,N,11620.39147,E,1,32,,55.942,M,,M,,*44

[13:16:35.718]收←◆$GPGGA,051635,3958.83934,N,11620.39091,E,1,32,,54.875,M,,M,,*48

[13:16:36.645]收←◆$GPGGA,051636,3958.84044,N,11620.39013,E,1,32,,53.789,M,,M,,*43

[13:16:37.649]收←◆$GPGGA,051637,3958.84159,N,11620.38985,E,1,32,,53.285,M,,M,,*41

[13:16:38.712]收←◆$GPGGA,051638,3958.84247,N,11620.38961,E,1,32,,52.993,M,,M,,*45

[13:16:39.698]收←◆$GPGGA,051639,3958.8431,N,11620.38944,E,1,31,,52.416,M,,M,,*73

[13:16:40.660]收←◆$GPGGA,051640,3958.84362,N,11620.38942,E,1,31,,51.482,M,,M,,*40

[13:16:41.717]收←◆$GPGGA,051641,3958.84415,N,11620.38977,E,1,31,,50.702,M,,M,,*4A

[13:16:42.656]收←◆$GPGGA,051642,3958.84471,N,11620.39057,E,1,30,,50.110,M,,M,,*45

[13:16:43.707]收←◆$GPGGA,051643,3958.84509,N,11620.39167,E,1,30,,49.774,M,,M,,*44

[13:16:44.750]收←◆$GPGGA,051644,3958.84506,N,11620.39277,E,1,31,,49.459,M,,M,,*43

[13:16:45.670]收←◆$GPGGA,051644,3958.84506,N,11620.39277,E,1,31,,49.459,M,,M,,*43

[13:16:46.661]收←◆$GPGGA,051646,3958.84523,N,11620.39494,E,1,32,,49.097,M,,M,,*48

[13:16:47.732]收←◆$GPGGA,051647,3958.84536,N,11620.39597,E,1,32,,48.650,M,,M,,*43

[13:16:48.732]收←◆$GPGGA,051648,3958.84542,N,11620.3972,E,1,32,,48.936,M,,M,,*7E

[13:16:49.677]收←◆$GPGGA,051649,3958.84548,N,11620.39799,E,1,32,,48.745,M,,M,,*4D

[13:16:50.729]收←◆$GPGGA,051650,3958.84555,N,11620.39889,E,1,32,,48.706,M,,M,,*40

[13:16:51.689]收←◆$GPGGA,051651,3958.84567,N,11620.39983,E,1,32,,48.888,M,,M,,*42

[13:16:52.682]收←◆$GPGGA,051652,3958.84611,N,11620.40115,E,1,32,,49.035,M,,M,,*45

[13:16:53.728]收←◆$GPGGA,051653,3958.84635,N,11620.40261,E,1,32,,48.264,M,,M,,*45

[13:16:54.736]收←◆$GPGGA,051654,3958.84655,N,11620.40392,E,1,31,,47.846,M,,M,,*4F

[13:16:55.696]收←◆$GPGGA,051655,3958.84661,N,11620.40511,E,1,31,,47.557,M,,M,,*49

[13:16:56.700]收←◆$GPGGA,051656,3958.84666,N,11620.40612,E,1,31,,47.287,M,,M,,*47

[13:16:57.733]收←◆$GPGGA,051657,3958.84672,N,11620.40715,E,1,32,,47.508,M,,M,,*46

[13:16:58.689]收←◆$GPGGA,051658,3958.84619,N,11620.40808,E,1,32,,47.410,M,,M,,*4F

[13:16:59.740]收←◆$GPGGA,051659,3958.84538,N,11620.40878,E,1,32,,47.472,M,,M,,*4D

[13:17:00.741]收←◆$GPGGA,051700,3958.84484,N,11620.40918,E,1,32,,47.214,M,,M,,*47

[13:17:01.744]收←◆$GPGGA,051701,3958.84426,N,11620.40921,E,1,32,,46.971,M,,M,,*4D

[13:17:02.697]收←◆$GPGGA,051702,3958.84351,N,11620.40901,E,1,31,,46.562,M,,M,,*46

[13:17:03.694]收←◆$GPGGA,051702,3958.84351,N,11620.40901,E,1,31,,46.562,M,,M,,*46

[13:17:04.703]收←◆$GPGGA,051704,3958.84195,N,11620.40872,E,1,31,,45.334,M,,M,,*49

[13:17:05.714]收←◆$GPGGA,051705,3958.8412,N,11620.40877,E,1,31,,44.537,M,,M,,*77

[13:17:06.699]收←◆$GPGGA,051706,3958.84066,N,11620.40878,E,1,31,,43.868,M,,M,,*48

[13:17:07.724]收←◆$GPGGA,051707,3958.84008,N,11620.40887,E,1,31,,43.459,M,,M,,*4F

[13:17:08.766]收←◆$GPGGA,051708,3958.83946,N,11620.40912,E,1,31,,43.508,M,,M,,*4C

[13:17:09.767]收←◆$GPGGA,051709,3958.83871,N,11620.40917,E,1,31,,43.481,M,,M,,*4D

[13:17:10.725]收←◆$GPGGA,051710,3958.83803,N,11620.40907,E,1,32,,43.025,M,,M,,*48

[13:17:11.757]收←◆$GPGGA,051711,3958.83746,N,11620.40908,E,1,32,,43.047,M,,M,,*4C

[13:17:12.749]收←◆$GPGGA,051712,3958.8368,N,11620.40911,E,1,32,,42.952,M,,M,,*70

[13:17:13.733]收←◆$GPGGA,051713,3958.83633,N,11620.40911,E,1,32,,42.644,M,,M,,*41

[13:17:14.757]收←◆$GPGGA,051714,3958.83559,N,11620.40943,E,1,32,,42.480,M,,M,,*44

[13:17:15.783]收←◆$GPGGA,051715,3958.83297,N,11620.40958,E,1,32,,45.069,M,,M,,*4E

[13:17:16.758]收←◆$GPGGA,051716,3958.83131,N,11620.40954,E,1,33,,48.415,M,,M,,*4D

[13:17:17.715]收←◆$GPGGA,051717,3958.83017,N,11620.40985,E,1,34,,48.502,M,,M,,*45

[13:17:18.771]收←◆$GPGGA,051718,3958.8295,N,11620.41031,E,1,34,,46.506,M,,M,,*7C

[13:17:19.735]收←◆$GPGGA,051719,3958.82836,N,11620.41008,E,1,34,,44.579,M,,M,,*4C

[13:17:20.767]收←◆$GPGGA,051720,3958.82709,N,11620.41018,E,1,34,,43.592,M,,M,,*46

[13:17:21.747]收←◆$GPGGA,051721,3958.82587,N,11620.40944,E,1,34,,44.156,M,,M,,*49

[13:17:22.785]收←◆$GPGGA,051722,3958.8263,N,11620.41065,E,1,34,,43.402,M,,M,,*7D

[13:17:23.772]收←◆$GPGGA,051723,3958.82623,N,11620.41143,E,1,33,,42.886,M,,M,,*4D

[13:17:24.773]收←◆$GPGGA,051724,3958.82632,N,11620.41189,E,1,33,,43.851,M,,M,,*47

[13:17:25.805]收←◆$GPGGA,051725,3958.82649,N,11620.41166,E,1,33,,44.799,M,,M,,*47

[13:17:26.779]收←◆$GPGGA,051726,3958.82605,N,11620.41217,E,1,33,,45.245,M,,M,,*4C

[13:17:27.779]收←◆$GPGGA,051727,3958.82561,N,11620.41315,E,1,32,,45.598,M,,M,,*49

[13:17:28.742]收←◆$GPGGA,051728,3958.82507,N,11620.41471,E,1,32,,46.679,M,,M,,*4C

[13:17:29.841]收←◆$GPGGA,051729,3958.82434,N,11620.41606,E,1,32,,47.620,M,,M,,*43

[13:17:30.760]收←◆$GPGGA,051730,3958.82363,N,11620.41692,E,1,32,,48.992,M,,M,,*4A

[13:17:31.738]收←◆$GPGGA,051731,3958.82332,N,11620.41786,E,1,34,,49.092,M,,M,,*45

[13:17:32.744]收←◆$GPGGA,051732,3958.82344,N,11620.41902,E,1,34,,49.271,M,,M,,*4A

[13:17:33.804]收←◆$GPGGA,051733,3958.82366,N,11620.41998,E,1,34,,49.340,M,,M,,*4B

[13:17:34.791]收←◆$GPGGA,051734,3958.82388,N,11620.42083,E,1,34,,49.392,M,,M,,*43

[13:17:35.790]收←◆$GPGGA,051735,3958.82417,N,11620.42159,E,1,34,,49.521,M,,M,,*4B

[13:17:36.817]收←◆$GPGGA,051736,3958.8244,N,11620.4226,E,1,34,,49.637,M,,M,,*47

[13:17:37.748]收←◆$GPGGA,051737,3958.82466,N,11620.42361,E,1,34,,49.809,M,,M,,*41

[13:17:38.749]收←◆$GPGGA,051738,3958.82583,N,11620.42619,E,1,33,,51.272,M,,M,,*46

[13:17:39.803]收←◆$GPGGA,051739,3958.82676,N,11620.42781,E,1,33,,51.804,M,,M,,*45

[13:17:40.766]收←◆$GPGGA,051740,3958.82665,N,11620.42876,E,1,33,,52.899,M,,M,,*49

[13:17:41.795]收←◆$GPGGA,051741,3958.82661,N,11620.42981,E,1,33,,54.033,M,,M,,*4B

[13:17:42.822]收←◆$GPGGA,051742,3958.82699,N,11620.43083,E,1,33,,55.002,M,,M,,*46

[13:17:43.775]收←◆$GPGGA,051743,3958.82726,N,11620.43153,E,1,33,,55.584,M,,M,,*45

[13:17:44.797]收←◆$GPGGA,051744,3958.8275,N,11620.43268,E,1,33,,56.275,M,,M,,*72

[13:17:45.800]收←◆$GPGGA,051745,3958.82764,N,11620.43372,E,1,32,,56.479,M,,M,,*45

[13:17:46.756]收←◆$GPGGA,051746,3958.82803,N,11620.43486,E,1,32,,57.185,M,,M,,*43

[13:17:47.808]收←◆$GPGGA,051747,3958.82826,N,11620.43573,E,1,32,,57.428,M,,M,,*4C

[13:17:48.782]收←◆$GPGGA,051748,3958.82894,N,11620.43638,E,1,32,,58.028,M,,M,,*4D

[13:17:49.784]收←◆$GPGGA,051749,3958.8288,N,11620.43802,E,1,33,,57.967,M,,M,,*72

[13:17:50.776]收←◆$GPGGA,051750,3958.82883,N,11620.43858,E,1,33,,58.044,M,,M,,*41

[13:17:51.838]收←◆$GPGGA,051751,3958.8289,N,11620.43953,E,1,33,,58.297,M,,M,,*74

[13:17:52.814]收←◆$GPGGA,051752,3958.82892,N,11620.44037,E,1,33,,58.544,M,,M,,*40

[13:17:53.829]收←◆$GPGGA,051753,3958.82894,N,11620.44122,E,1,33,,58.844,M,,M,,*4F

[13:17:54.812]收←◆$GPGGA,051754,3958.82914,N,11620.44209,E,1,33,,59.206,M,,M,,*46

[13:17:55.826]收←◆$GPGGA,051755,3958.82943,N,11620.4431,E,1,33,,59.610,M,,M,,*7F

[13:17:56.768]收←◆$GPGGA,051756,3958.82917,N,11620.44404,E,1,33,,61.642,M,,M,,*43

[13:17:57.816]收←◆$GPGGA,051757,3958.82953,N,11620.44567,E,1,33,,62.777,M,,M,,*42

[13:17:58.851]收←◆$GPGGA,051758,3958.82942,N,11620.4473,E,1,33,,64.410,M,,M,,*79

[13:17:59.837]收←◆$GPGGA,051759,3958.82876,N,11620.44891,E,1,33,,66.186,M,,M,,*42

[13:18:00.793]收←◆$GPGGA,051800,3958.82848,N,11620.44901,E,1,33,,66.564,M,,M,,*4C

[13:18:01.782]收←◆$GPGGA,051801,3958.82788,N,11620.44951,E,1,33,,70.464,M,,M,,*4D

[13:18:02.785]收←◆$GPGGA,051802,3958.82752,N,11620.45021,E,1,32,,73.632,M,,M,,*45

[13:18:03.838]收←◆$GPGGA,051803,3958.82768,N,11620.4504,E,1,32,,74.970,M,,M,,*74

[13:18:04.790]收←◆$GPGGA,051804,3958.82738,N,11620.45123,E,1,32,,75.850,M,,M,,*40

[13:18:05.794]收←◆$GPGGA,051805,3958.82721,N,11620.45207,E,1,31,,76.515,M,,M,,*40

[13:18:06.800]收←◆$GPGGA,051806,3958.82701,N,11620.453,E,1,31,,76.845,M,,M,,*4F

[13:18:07.806]收←◆$GPGGA,051807,3958.82695,N,11620.45415,E,1,31,,77.155,M,,M,,*48

[13:18:08.804]收←◆$GPGGA,051808,3958.82679,N,11620.45518,E,1,32,,77.631,M,,M,,*4F

[13:18:09.793]收←◆$GPGGA,051809,3958.82665,N,11620.45629,E,1,33,,77.991,M,,M,,*46

[13:18:10.792]收←◆$GPGGA,051810,3958.82656,N,11620.4574,E,1,34,,78.447,M,,M,,*7E

[13:18:11.844]收←◆$GPGGA,051811,3958.82632,N,11620.45842,E,1,34,,78.804,M,,M,,*4B

[13:18:12.845]收←◆$GPGGA,051812,3958.82616,N,11620.45945,E,1,34,,79.147,M,,M,,*47

[13:18:13.851]收←◆$GPGGA,051813,3958.82595,N,11620.4605,E,1,34,,79.464,M,,M,,*74

[13:18:14.856]收←◆$GPGGA,051814,3958.82585,N,11620.4614,E,1,34,,79.719,M,,M,,*7B

[13:18:15.800]收←◆$GPGGA,051815,3958.82592,N,11620.46204,E,1,34,,79.964,M,,M,,*4B
